     3.04           OBSERVATION DATA    M: Mixed            RINEX VERSION / TYPE
RTKCONV demo5 b34k                      20250328 031432 UTC PGM / RUN BY / DATE         
                                                            MARKER NAME         
                                                            MARKER NUMBER       
                                                            MARKER TYPE         
                                                            OBSERVER / AGENCY   
BFN17053330         NOV CDSR0G55N       OEM060710RN0000     REC # / TYPE / VERS 
                                                            ANT # / TYPE        
 -2418096.8303  5386067.2666  2405154.1270                  APPROX POSITION XYZ 
        0.0000        0.0000        0.0000                  ANTENNA: DELTA H/E/N
G   12 C1C L1C D1C S1C C2W L2W D2W S2W C2S L2S D2S S2S      SYS / # / OBS TYPES 
R    8 C1C L1C D1C S1C C2P L2P D2P S2P                      SYS / # / OBS TYPES 
C    8 C2I L2I D2I S2I C7I L7I D7I S7I                      SYS / # / OBS TYPES 
  2020    11    19    06    00   00.0000000     GPS         TIME OF FIRST OBS   
  2020    11    19    06    04   59.0000000     GPS         TIME OF LAST OBS    
G L1C                                                       SYS / PHASE SHIFT   
G L2W  0.00000                                              SYS / PHASE SHIFT   
G L2S -0.25000                                              SYS / PHASE SHIFT   
R L1C                                                       SYS / PHASE SHIFT   
R L2P  0.25000                                              SYS / PHASE SHIFT   
C L2I                                                       SYS / PHASE SHIFT   
C L7I                                                       SYS / PHASE SHIFT   
  7 R07  5 R08  6 R09 -2 R10 -7 R12 -1 R16 -1 R22 -3        GLONASS SLOT / FRQ #
 C1C    0.000 C1P    0.000 C2C    0.000 C2P    0.000        GLONASS COD/PHS/BIS 
                                                            END OF HEADER       
> 2020 11 19 06 00 00.0000000  0 17                     
G23  20279011.109 8 106566905.09418      -373.481          48.881                                                                    20279010.911 7  83039138.62017      -291.030          47.725  
G18  23032935.942 5 121038877.17615     -3153.927          34.915                                                                                                                                  
G20  20033559.373 7 105277045.50117      -813.937          46.936    20033557.875 7  82034045.53517      -634.242          44.159                                                                  
G25  21641911.794 7 113729025.05017      2281.663          46.854                                                                    21641917.878 7  88620019.73617      1777.920          46.948  
G12  22114138.665 6 116210570.22416       310.555          38.742                                                                    22114138.558 5  90553685.82715       241.992          31.265  
G10  20826060.280 8 109441681.36018      1774.474          49.329                                                                    20826060.525 7  85279235.34717      1382.706          44.866  
R10  19423437.546 7 103537490.57017      1676.871          45.932                                                                  
R09  20315337.926 8 108482384.49718     -2282.590          48.319    20315338.181 7  84375189.53017     -1775.348          45.042  
R07  20536213.498 8 109931529.27218       998.318          48.113    20536212.970 7  85502319.37117       776.470          44.720  
C01  37496778.362 7 195255543.74017         0.458          44.095    37496782.877 7 150983976.51717         0.151          44.429  
C08  37965029.324 6 197693832.27016     -1731.402          38.496    37965030.828 6 152869402.38316     -1339.036          37.934  
C03  36338343.312 7 189223270.66517       -29.508          46.230    36338342.337 7 146319424.41217       -22.799          45.377  
C04  38408292.292 7 200002047.39617       -11.486          42.549    38408294.254 6 154654275.76016        -9.036          39.272  
C22  22593393.935 6 117649743.66016      1378.764          41.338                                                                  
C07  38196481.925 6 198899120.80116      1394.519          40.793    38196484.666 7 153801417.45317      1078.364          45.560  
C13  36623415.546 7 190707700.52917     -1416.172          45.434    36623423.361 7 147467307.65417     -1095.165          44.342  
C19  22790483.116 7 118675979.97117      -897.793          46.201                                                                  
> 2020 11 19 06 00 01.0000000  0 17                     
G23  20279082.394 8 106567279.635 8      -375.182          48.974                                                                    20279082.186 7  83039430.464 7      -292.356          47.917  
G18  23033536.895 6 121042031.497 6     -3154.278          36.594                                                                                                                                  
G20  20033714.467 7 105277860.609 7      -815.644          46.788    20033713.007 7  82034680.678 7      -635.573          43.898                                                                  
G25  21641477.800 7 113726744.308 7      2280.339          46.829                                                                    21641483.849 7  88618242.536 7      1776.888          46.797  
G12  22114079.770 6 116210260.768 6       309.275          38.693                                                                    22114079.716 5  90553444.692 5       240.992          31.729  
G10  20825722.773 8 109439907.788 8      1773.057          49.229                                                                    20825723.011 7  85277853.341 7      1381.602          45.043  
R10  19423123.204 7 103535814.907 7      1674.801          46.065                                                                  
R09  20315765.602 8 108484668.225 8     -2284.448          48.393    20315765.827 7  84376965.764 7     -1776.793          45.039  
R07  20536027.166 8 109930531.847 8       997.105          48.290    20536026.675 7  85501543.596 7       775.526          44.688  
C01  37496778.472 7 195255544.318 7        -0.923          44.094    37496782.988 7 150983976.936 7        -0.699          44.551  
C08  37965361.979 6 197695564.427 6     -1732.352          38.084    37965363.454 6 152870741.775 6     -1339.829          38.337  
C03  36338349.105 7 189223300.811 7       -30.354          46.521    36338348.130 7 146319447.705 7       -23.474          45.288  
C04  38408294.621 7 200002059.573 7       -12.352          42.648    38408296.600 6 154654285.181 6        -9.399          39.215  
C22  22593129.305 6 117648365.615 6      1377.750          41.552                                                                  
C07  38196214.261 6 198897726.980 6      1393.350          40.679    38196216.987 7 153800339.649 7      1077.573          45.403  
C13  36623687.658 7 190709117.506 7     -1417.477          45.473    36623695.489 7 147468403.337 7     -1096.004          44.681  
C19  22790655.705 7 118676878.803 7      -899.105          46.126                                                                  
> 2020 11 19 06 00 02.0000000  0 17                     
G23  20279153.915 8 106567655.419 8      -376.285          49.030                                                                    20279153.688 7  83039723.273 7      -293.216          47.797  
G18  23034138.322 6 121045186.591 6     -3155.396          36.959                                                                                                                                  
G20  20033869.801 7 105278677.024 7      -816.956          46.860    20033868.390 7  82035316.841 7      -636.594          43.742                                                                  
G25  21641044.016 7 113724464.684 7      2279.284          47.057                                                                    21641050.045 7  88616466.206 7      1776.066          46.767  
G12  22114021.059 6 116209952.656 6       307.426          38.887                                                                    22114021.102 5  90553204.590 5       239.549          32.521  
G10  20825385.486 8 109438135.356 8      1772.016          49.371                                                                    20825385.729 7  85276472.224 7      1380.790          44.959  
R10  19422809.134 7 103534140.794 7      1673.485          46.097                                                                  
R09  20316193.522 8 108486953.354 8     -2285.654          48.384    20316193.747 7  84378743.085 7     -1777.731          45.068  
R07  20535841.015 8 109929535.334 8       996.154          48.128    20535840.556 7  85500768.526 7       774.786          44.593  
C01  37496778.714 7 195255545.542 7        -1.274          43.942    37496783.236 7 150983977.904 7        -1.112          44.332  
C08  37965694.781 6 197697297.425 6     -1733.032          38.168    37965696.263 6 152872081.832 6     -1340.553          38.078  
C03  36338355.028 7 189223331.642 7       -30.987          46.135    36338354.061 7 146319471.547 7       -23.929          45.462  
C04  38408297.107 7 200002072.452 7       -13.106          42.658    38408299.072 6 154654295.147 6       -10.096          39.535  
C22  22592864.868 6 117646988.493 6      1376.634          41.412                                                                  
C07  38195946.734 6 198896333.864 6      1392.980          40.884    38195949.466 7 153799262.420 7      1077.131          45.488  
C13  36623959.943 7 190710535.305 7     -1418.083          45.327    36623967.779 7 147469499.675 7     -1096.601          44.529  
C19  22790828.480 7 118677778.639 7      -900.216          45.565                                                                  
> 2020 11 19 06 00 03.0000000  0 17                     
G23  20279225.534 8 106568031.741 8      -376.464          49.091                                                                    20279225.293 7  83040016.505 7      -293.356          47.946  
G18  23034739.540 6 121048341.791 6     -3154.909          37.148                                                                                                                                  
G20  20034025.238 7 105279494.006 7      -817.204          46.772    20034023.879 7  82035953.449 7      -636.786          43.411                                                                  
G25  21640610.301 7 113722185.444 7      2279.034          47.107                                                                    21640616.310 7  88614690.173 7      1775.871          46.674  
G12  22113962.505 6 116209645.098 6       307.629          38.928                                                                    22113962.361 5  90552964.921 5       239.705          33.092  
G10  20825048.271 8 109436363.320 8      1771.895          49.430                                                                    20825048.531 7  85275091.417 7      1380.696          44.927  
R10  19422495.239 7 103532467.496 7      1672.948          45.928                                                                  
R09  20316621.575 8 108489239.143 8     -2285.963          48.400    20316621.785 7  84380520.921 7     -1777.972          45.247  
R07  20535654.886 8 109928539.029 8       996.295          48.061    20535654.472 7  85499993.625 7       774.896          44.646  
C01  37496778.951 7 195255546.776 7        -1.127          43.981    37496783.476 7 150983978.851 7        -0.884          44.426  
C08  37966027.620 6 197699030.423 6     -1732.807          37.953    37966029.064 6 152873421.908 6     -1339.930          38.142  
C03  36338360.952 7 189223362.456 7       -30.744          46.170    36338359.976 7 146319495.378 7       -23.777          45.382  
C04  38408299.580 7 200002085.311 7       -12.667          42.384    38408301.543 6 154654305.100 6        -9.908          39.033  
C22  22592600.454 6 117645611.505 6      1377.023          41.063                                                                  
C07  38195679.204 6 198894940.781 6      1392.967          40.545    38195681.931 7 153798185.174 7      1077.259          45.275  
C13  36624232.248 7 190711953.233 7     -1417.969          45.447    36624240.085 7 147470596.107 7     -1096.420          44.590  
C19  22791001.305 7 118678678.760 7      -900.422          45.327                                                                  
> 2020 11 19 06 00 04.0000000  0 17                     
G23  20279297.288 8 106568408.795 8      -377.499          49.021                                                                    20279297.042 7  83040310.307 7      -294.162          47.832  
G18  23035339.931 6 121051497.224 6     -3155.604          38.357                                                                                                                                  
G20  20034180.824 7 105280311.754 7      -818.181          46.703    20034179.504 7  82036590.652 7      -637.548          44.059                                                                  
G25  21640176.694 7 113719906.796 7      2278.236          47.557                                                                    21640182.673 7  88612914.602 7      1775.249          46.567  
G12  22113904.096 6 116209338.334 6       306.252          38.966                                                                    22113903.903 5  90552725.870 5       238.630          32.094  
G10  20824711.177 8 109434591.872 8      1770.986          49.623                                                                    20824711.427 7  85273711.067 7      1379.989          44.666  
R10  19422181.529 7 103530795.194 7      1671.748          45.967                                                                  
R09  20317049.797 8 108491525.816 8     -2287.265          48.436    20317049.995 7  84382299.442 7     -1778.985          45.234  
R07  20535468.838 8 109927543.106 8       995.719          48.129    20535468.462 7  85499219.019 7       774.448          44.546  
C01  37496779.219 7 195255548.175 7        -1.439          43.881    37496783.754 7 150983979.943 7        -1.292          44.390  
C08  37966360.494 6 197700763.691 6     -1733.478          38.047    37966361.929 6 152874762.170 6     -1340.466          38.266  
C03  36338366.897 7 189223393.436 7       -31.020          46.213    36338365.934 7 146319519.338 7       -24.157          45.472  
C04  38408302.103 7 200002098.370 7       -13.326          42.457    38408304.061 6 154654315.176 6       -10.111          39.541  
C22  22592336.103 6 117644234.861 6      1376.142          41.280                                                                  
C07  38195411.723 6 198893547.885 6      1392.349          40.894    38195414.429 7 153797108.093 7      1076.976          45.592  
C13  36624504.611 7 190713371.454 7     -1418.446          45.585    36624512.447 7 147471692.762 7     -1096.808          44.631  
C19  22791174.206 7 118679579.323 7      -900.912          45.077                                                                  
> 2020 11 19 06 00 05.0000000  0 17                     
G23  20279369.190 8 106568786.585 8      -377.907          49.032                                                                    20279368.923 7  83040604.681 7      -294.480          47.693  
G18  23035941.938 6 121054652.876 6     -3155.885          38.108                                                                                                                                  
G20  20034336.558 7 105281130.309 7      -818.681          46.381    20034335.288 7  82037228.485 7      -637.937          44.197                                                                  
G25  21639743.208 7 113717628.741 7      2278.027          47.647                                                                    21639749.175 7  88611139.493 7      1775.085          46.602  
G12  22113845.860 6 116209032.384 6       305.807          39.303                                                                    22113845.697 5  90552487.448 5       238.280          32.554  
G10  20824374.196 8 109432821.033 8      1770.820          49.589                                                                    20824374.456 7  85272331.191 7      1379.858          44.415  
R10  19421868.011 7 103529123.952 7      1670.922          45.881                                                                  
R09  20317478.174 8 108493813.371 8     -2287.789          48.569    20317478.377 7  84384078.649 7     -1779.392          45.432  
R07  20535282.886 8 109926547.621 8       995.463          48.260    20535282.533 7  85498444.753 7       774.249          44.439  
C01  37496779.522 7 195255549.744 7        -1.106          43.872    37496784.054 7 150983981.165 7        -1.098          44.425  
C08  37966693.401 6 197702497.231 6     -1733.346          37.904    37966694.841 6 152876102.670 6     -1340.477          38.322  
C03  36338372.887 7 189223424.609 7       -30.983          46.222    36338371.919 7 146319543.434 7       -23.925          45.207  
C04  38408304.644 7 200002111.562 7       -13.064          42.536    38408306.602 6 154654325.403 6        -9.945          39.099  
C22  22592071.811 6 117642858.572 6      1376.186          40.954                                                                  
C07  38195144.280 6 198892155.221 6      1392.595          40.960    38195146.981 7 153796031.186 7      1077.092          45.490  
C13  36624777.030 7 190714789.999 7     -1418.420          45.668    36624784.872 7 147472789.671 7     -1096.749          44.327  
C19  22791347.195 7 118680480.375 7      -900.880          44.959                                                                  
> 2020 11 19 06 00 06.0000000  0 17                     
G23  20279441.136 8 106569164.608 8      -378.430          48.924                                                                    20279440.857 7  83040899.237 7      -294.887          47.944  
G18  23036542.671 6 121057808.267 6     -3155.657          39.075                                                                                                                                  
G20  20034492.350 7 105281949.130 7      -819.338          46.546    20034491.118 7  82037866.526 7      -638.448          43.859                                                                  
G25  21639309.733 7 113715350.779 7      2277.641          47.400                                                                    21639315.689 7  88609364.456 7      1774.784          46.601  
G12  22113787.612 6 116208726.713 6       305.430          39.280                                                                    22113787.476 5  90552249.243 5       237.985          32.752  
G10  20824037.224 8 109431050.282 8      1770.368          49.670                                                                    20824037.485 7  85270951.381 7      1379.506          43.914  
R10  19421554.587 7 103527453.196 7      1670.244          45.942                                                                  
R09  20317906.640 8 108496101.304 8     -2288.438          48.387    20317906.836 7  84385858.149 7     -1779.898          45.399  
R07  20535096.879 7 109925552.020 7       995.266          47.921    20535096.577 7  85497670.395 7       774.096          43.906  
C01  37496779.783 7 195255551.040 7        -1.337          43.875    37496784.292 7 150983982.151 7        -1.173          44.349  
C08  37967026.270 6 197704230.532 6     -1733.050          37.613    37967027.684 6 152877442.966 6     -1340.696          38.324  
C03  36338378.814 7 189223455.474 7       -31.200          46.291    36338377.845 7 146319567.293 7       -23.890          45.342  
C04  38408307.122 7 200002124.476 7       -13.241          42.554    38408309.072 6 154654335.362 6       -10.066          39.708  
C22  22591807.501 6 117641482.114 6      1376.191          41.520                                                                  
C07  38194876.757 6 198890762.210 6      1392.789          41.263    38194879.478 7 153794954.043 7      1077.065          45.652  
C13  36625049.419 7 190716208.354 7     -1418.508          45.659    36625057.274 7 147473886.447 7     -1096.992          44.662  
C19  22791520.184 7 118681381.415 7      -901.296          44.520                                                                  
> 2020 11 19 06 00 07.0000000  0 17                     
G23  20279513.246 8 106569543.526 8      -379.292          48.883                                                                    20279512.962 8  83041194.493 8      -295.559          48.094  
G18  23037143.423 6 121060964.086 6     -3156.065          39.091                                                                                                                                  
G20  20034648.313 7 105282768.870 7      -820.080          46.636    20034647.129 7  82038505.281 7      -639.026          44.066                                                                  
G25  21638876.408 7 113713073.554 7      2277.037          47.572                                                                    21638882.337 7  88607589.992 7      1774.313          46.526  
G12  22113729.583 6 116208421.967 6       304.600          39.205                                                                    22113729.697 5  90552011.767 5       237.339          32.149  
G10  20823700.405 8 109429280.306 8      1769.759          49.644                                                                    20823700.668 7  85269572.184 7      1379.033          44.261  
R10  19421241.380 7 103525783.604 7      1669.223          46.045                                                                  
R09  20318335.285 8 108498390.250 8     -2289.380          48.362    20318335.481 7  84387638.436 7     -1780.631          45.666  
R07  20534910.988 7 109924556.941 7       994.941          47.967    20534910.731 7  85496896.446 7       773.844          43.815  
C01  37496780.090 7 195255552.616 7        -1.553          44.100    37496784.589 7 150983983.377 7        -1.281          44.228  
C08  37967359.225 6 197705964.236 6     -1733.977          37.910    37967360.611 6 152878783.570 6     -1340.512          37.721  
C03  36338384.799 7 189223486.637 7       -31.214          46.383    36338383.842 7 146319591.399 7       -24.065          45.354  
C04  38408309.670 7 200002137.692 7       -13.203          42.315    38408311.618 6 154654345.579 6       -10.128          39.650  
C22  22591543.285 6 117640106.180 6      1375.686          41.531                                                                  
C07  38194609.309 6 198889369.578 6      1392.605          40.763    38194612.030 7 153793877.166 7      1076.894          45.734  
C13  36625321.898 7 190717627.187 7     -1418.835          45.551    36625329.767 7 147474983.573 7     -1097.185          44.409  
C19  22791693.287 7 118682283.094 7      -901.925          44.691                                                                  
> 2020 11 19 06 00 08.0000000  0 17                     
G23  20279585.387 8 106569922.581 8      -379.145          48.850                                                                    20279585.087 8  83041489.855 8      -295.443          48.085  
G18  23037744.324 6 121064119.579 6     -3155.625          39.735                                                                                                                                  
G20  20034804.322 7 105283588.825 7      -820.251          46.470    20034803.180 7  82039144.204 7      -639.159          44.540                                                                  
G25  21638443.092 7 113710796.349 7      2277.224          47.321                                                                    21638448.999 7  88605815.544 7      1774.459          46.362  
G12  22113671.623 6 116208117.449 6       304.454          39.549                                                                    22113671.499 5  90551774.464 5       237.223          32.721  
G10  20823363.590 8 109427510.343 8      1769.888          49.646                                                                    20823363.859 7  85268192.995 7      1379.135          44.087  
R10  19420928.269 7 103524114.446 7      1668.829          46.012                                                                  
R09  20318763.994 8 108500679.521 8     -2289.564          48.308    20318764.199 7  84389418.977 7     -1780.774          45.710  
R07  20534725.058 7 109923561.649 7       995.432          47.904    20534724.836 7  85496122.331 7       774.225          43.903  
C01  37496780.318 7 195255553.824 7        -1.144          43.916    37496784.812 7 150983984.298 7        -0.796          44.157  
C08  37967692.094 6 197707697.610 6     -1733.214          37.576    37967693.480 6 152880123.933 6     -1340.210          37.872  
C03  36338390.717 7 189223517.420 7       -30.614          46.533    36338389.756 7 146319615.205 7       -23.719          45.440  
C04  38408312.130 7 200002150.531 7       -12.657          42.396    38408314.082 6 154654355.521 6       -10.057          39.442  
C22  22591279.010 6 117638729.988 6      1376.149          41.571                                                                  
C07  38194341.793 6 198887976.563 6      1393.359          40.981    38194344.517 7 153792800.004 7      1077.130          45.676  
C13  36625594.320 7 190719045.781 7     -1418.635          45.598    36625602.201 7 147476080.511 7     -1096.954          44.547  
C19  22791866.386 7 118683184.674 7      -901.539          44.677                                                                  
> 2020 11 19 06 00 09.0000000  0 17                     
G23  20279657.611 8 106570302.119 8      -379.866          48.824                                                                    20279657.303 8  83041785.594 8      -296.005          48.152  
G18  23038344.800 6 121067275.024 6     -3155.595          38.917                                                                                                                                  
G20  20034960.427 7 105284409.274 7      -820.623          46.417    20034959.344 7  82039783.511 7      -639.450          44.148                                                                  
G25  21638009.841 7 113708519.470 7      2276.717          47.102                                                                    21638015.731 7  88604041.352 7      1774.064          46.346  
G12  22113613.762 6 116207813.429 6       303.836          39.445                                                                    22113613.755 5  90551537.546 5       236.741          32.567  
G10  20823026.833 8 109425740.709 8      1769.496          49.654                                                                    20823027.115 7  85266814.062 7      1378.829          44.498  
R10  19420615.285 7 103522446.018 7      1667.929          45.861                                                                  
R09  20319192.797 8 108502969.360 8     -2290.128          48.270    20319193.019 7  84391199.958 7     -1781.214          45.759  
R07  20534539.157 7 109922566.492 7       995.009          47.829    20534538.970 7  85495348.321 7       773.897          43.652  
C01  37496780.530 7 195255554.945 7        -1.210          44.216    37496785.023 7 150983985.159 7        -0.945          44.353  
C08  37968024.964 6 197709430.984 6     -1733.210          37.839    37968026.370 6 152881464.259 6     -1340.119          37.606  
C03  36338396.613 7 189223548.113 7       -30.736          46.529    36338395.656 7 146319638.928 7       -23.667          45.382  
C04  38408314.568 7 200002163.264 7       -12.819          42.785    38408316.512 6 154654365.335 6        -9.768          39.287  
C22  22591014.747 6 117637353.877 6      1376.019          41.374                                                                  
C07  38194074.271 6 198886583.495 6      1393.179          40.908    38194076.985 7 153791722.781 7      1077.361          45.704  
C13  36625866.755 7 190720464.408 7     -1418.693          45.831    36625874.632 7 147477177.478 7     -1096.917          44.636  
C19  22792039.521 7 118684086.460 7      -901.904          44.718                                                                  
> 2020 11 19 06 00 10.0000000  0 18                     
G23  20279729.938 8 106570682.135 8      -380.217          48.877                                                                    20279729.618 8  83042081.707 8      -296.278          48.244  
G18  23038945.636 6 121070430.489 6     -3155.536          39.388                                                                                                                                  
G20  20035116.631 7 105285230.274 7      -821.168          46.576    20035115.601 7  82040423.250 7      -639.874          44.610                                                                  
G25  21637576.648 7 113706242.926 7      2276.442          47.222                                                                    21637582.524 7  88602267.421 7      1773.850          46.212  
G12  22113556.021 6 116207509.940 6       303.532          39.336                                                                    22113556.036 5  90551301.049 5       236.506          32.546  
G10  20822690.145 8 109423971.439 8      1769.133          49.584                                                                    20822690.446 7  85265435.413 7      1378.547          44.312  
G24  23300351.621 5 122444173.41115     -3262.710          32.736                                                                                                                                  
R10  19420302.453 7 103520778.355 7      1667.235          45.799                                                                  
R09  20319621.718 8 108505259.838 8     -2290.848          48.299    20319621.970 7  84392981.437 7     -1781.774          45.752  
R07  20534353.285 7 109921571.492 7       994.912          47.696    20534353.134 7  85494574.434 7       773.821          43.654  
C01  37496780.728 7 195255555.972 7        -0.845          44.107    37496785.225 7 150983985.962 7        -0.734          44.294  
C08  37968357.860 6 197711164.398 6     -1733.595          37.739    37968359.243 6 152882804.651 6     -1340.326          37.760  
C03  36338402.495 7 189223578.731 7       -30.536          46.595    36338401.532 7 146319662.618 7       -23.686          45.284  
C04  38408317.000 7 200002175.955 7       -12.501          42.808    38408318.947 6 154654375.169 6        -9.787          39.649  
C22  22590750.508 6 117635977.895 6      1375.776          41.098                                                                  
C07  38193806.751 6 198885190.403 6      1393.190          41.309    38193809.460 7 153790645.553 7      1077.244          45.549  
C13  36626139.215 7 190721883.122 7     -1418.717          45.908    36626147.096 7 147478274.527 7     -1097.034          44.418  
C19  22792212.728 7 118684988.490 7      -902.024          45.236                                                                  
> 2020 11 19 06 00 11.0000000  0 18                     
G23  20279801.938 8 106571060.473 8      -376.178          48.787                                                                    20279801.614 8  83042376.512 8      -293.130          48.317  
G18  23039546.229 6 121073583.784 6     -3150.976          39.394                                                                                                                                  
G20  20035272.524 7 105286049.648 7      -817.233          46.605    20035271.556 7  82041061.721 7      -636.808          44.076                                                                  
G25  21637143.107 7 113703964.562 7      2280.574          47.237                                                                    21637148.961 7  88600492.075 7      1777.070          45.975  
G12  22113498.002 6 116207204.867 6       307.288          38.784                                                                    22113497.972 5  90551063.325 5       239.435          32.603  
G10  20822353.117 8 109422200.363 8      1773.137          49.715                                                                    20822353.406 7  85264055.350 7      1381.665          44.275  
G24  23300968.906 5 122447433.764 5     -3258.363          33.840                                                                                                                                  
R10  19419989.343 7 103519109.257 7      1671.165          45.839                                                                  
R09  20320050.359 8 108507548.735 8     -2286.828          48.113    20320050.623 7  84394761.689 7     -1778.646          45.741  
R07  20534167.026 7 109920574.464 7       999.388          47.670    20534166.919 7  85493798.966 7       777.302          43.669  
C01  37496780.502 7 195255554.819 7         3.540          44.031    37496785.004 7 150983985.065 7         2.731          44.220  
C08  37968690.347 6 197712895.679 6     -1729.088          38.083    37968691.714 6 152884143.402 6     -1336.985          37.268  
C03  36338407.961 7 189223607.156 7       -25.976          46.618    36338406.990 7 146319684.591 7       -20.151          45.314  
C04  38408319.013 7 200002186.422 7        -8.046          42.673    38408320.966 6 154654383.254 6        -6.076          39.768  
C22  22590485.889 6 117634599.882 6      1380.213          41.147                                                                  
C07  38193538.789 6 198883795.102 6      1397.687          41.146    38193541.508 7 153789566.614 7      1080.788          45.631  
C13  36626411.276 7 190723299.770 7     -1414.268          45.851    36626419.161 7 147479369.962 7     -1093.528          44.278  
C19  22792385.573 7 118685888.628 7      -897.999          45.853                                                                  
> 2020 11 19 06 00 12.0000000  0 18                     
G23  20279873.688 8 106571437.527 8      -378.788          48.706                                                                    20279873.375 8  83042670.320 8      -295.164          48.315  
G18  23040145.842 6 121076735.262 6     -3152.714          38.924                                                                                                                                  
G20  20035428.190 7 105286867.759 7      -819.786          46.619    20035427.269 7  82041699.207 7      -638.797          44.107                                                                  
G25  21636709.295 7 113701684.768 7      2278.348          47.225                                                                    21636715.120 7  88598715.614 7      1775.337          45.962  
G12  22113439.763 6 116206898.521 6       304.846          39.048                                                                    22113439.631 5  90550824.616 5       237.535          32.202  
G10  20822015.811 8 109420427.846 8      1770.963          49.737                                                                    20822016.112 7  85262674.165 7      1379.971          44.582  
G24  23301585.291 5 122450692.225 5     -3259.770          34.266                                                                                                                                  
R10  19419676.032 7 103517439.116 7      1668.332          45.845                                                                  
R09  20320478.758 7 108509836.450 7     -2289.473          47.982    20320479.065 7  84396541.025 7     -1780.703          45.902  
R07  20533980.456 7 109919575.760 7       997.277          47.634    20533980.388 7  85493022.196 7       775.659          43.602  
C01  37496779.927 7 195255551.824 7         1.665          43.984    37496784.419 7 150983982.747 7         1.380          44.252  
C08  37969022.498 6 197714625.185 6     -1730.991          37.856    37969023.819 6 152885480.758 6     -1338.299          37.594  
C03  36338413.068 7 189223633.730 7       -27.750          46.569    36338412.102 7 146319705.142 7       -21.499          45.233  
C04  38408320.668 7 200002195.035 7        -9.818          42.989    38408322.633 6 154654389.924 6        -7.618          39.527  
C22  22590220.936 6 117633220.179 6      1378.016          41.013                                                                  
C07  38193270.489 6 198882397.981 6      1395.680          41.008    38193273.202 7 153788486.272 7      1079.300          45.468  
C13  36626682.998 7 190724714.717 7     -1416.322          46.071    36626690.900 7 147480464.081 7     -1095.102          44.194  
C19  22792558.144 7 118686787.221 7      -900.204          46.009                                                                  
> 2020 11 19 06 00 13.0000000  0 18                     
G23  20279946.091 8 106571818.010 8      -382.023          48.629                                                                    20279945.788 8  83042966.799 8      -297.683          48.359  
G18  23040746.410 6 121079889.729 6     -3155.791          37.896                                                                                                                                  
G20  20035584.526 7 105287689.346 7      -822.951          46.798    20035583.639 7  82042339.407 7      -641.262          44.212                                                                  
G25  21636276.108 7 113699408.262 7      2275.040          47.199                                                                    21636281.904 7  88596941.718 7      1772.759          45.769  
G12  22113382.175 6 116206595.646 6       301.753          39.619                                                                    22113382.035 5  90550588.625 5       235.130          32.471  
G10  20821679.139 8 109418658.630 8      1767.787          49.711                                                                    20821679.441 7  85261295.559 7      1377.497          44.696  
G24  23302203.615 5 122453953.698 5     -3262.600          34.610                                                                                                                                  
R10  19419363.420 7 103515772.716 7      1664.724          45.889                                                                  
R09  20320907.851 7 108512127.806 7     -2292.918          47.862    20320908.187 7  84398323.191 7     -1783.382          45.868  
R07  20533794.471 7 109918580.201 7       994.196          47.724    20533794.436 7  85492247.871 7       773.263          43.435  
C01  37496779.895 7 195255551.682 7        -0.966          44.030    37496784.386 7 150983982.636 7        -0.855          44.382  
C08  37969355.209 6 197716357.647 6     -1733.432          37.178    37969356.539 6 152886820.396 6     -1340.580          37.596  
C03  36338418.720 7 189223663.171 7       -30.686          46.628    36338417.759 7 146319727.909 7       -23.755          45.303  
C04  38408322.866 7 200002206.525 7       -12.893          42.764    38408324.849 6 154654398.806 6        -9.897          39.696  
C22  22589956.568 6 117631843.492 6      1375.354          41.009                                                                  
C07  38193002.744 6 198881003.747 6      1393.013          41.374    38193005.457 7 153787408.163 7      1077.048          45.745  
C13  36626955.302 7 190726132.664 7     -1419.287          46.165    36626963.218 7 147481560.535 7     -1097.402          44.353  
C19  22792731.332 7 118687688.965 7      -902.992          46.216                                                                  
> 2020 11 19 06 00 14.0000000  0 18                     
G23  20280019.095 8 106572201.638 8      -385.575          48.467                                                                    20280018.799 8  83043265.726 8      -300.451          48.564  
G18  23041347.165 6 121083046.828 6     -3158.713          37.248                                                                                                                                  
G20  20035741.457 7 105288514.115 7      -826.625          46.827    20035740.602 7  82042982.084 7      -644.124          44.664                                                                  
G25  21635843.487 7 113697134.769 7      2271.574          46.905                                                                    21635849.265 7  88595170.169 7      1770.060          45.662  
G12  22113325.249 6 116206296.016 6       297.809          40.035                                                                    22113324.971 5  90550355.152 5       232.058          31.681  
G10  20821343.039 8 109416892.436 8      1764.403          49.685                                                                    20821343.362 7  85259919.310 7      1374.861          44.728  
G24  23302823.451 5 122457217.801 5     -3266.098          35.029                                                                                                                                  
R10  19419051.460 7 103514109.777 7      1660.986          45.788                                                                  
R09  20321337.562 7 108514422.448 7     -2296.642          47.729    20321337.922 7  84400107.911 7     -1786.278          45.835  
R07  20533609.020 7 109917587.499 7       990.999          47.717    20533609.021 7  85491475.769 7       770.777          43.387  
C01  37496780.365 7 195255554.128 7        -4.176          44.051    37496784.854 7 150983984.512 7        -3.140          44.252  
C08  37969688.402 6 197718092.712 6     -1736.540          37.410    37969689.738 6 152888162.082 6     -1342.765          37.395  
C03  36338424.875 7 189223695.184 7       -33.629          46.576    36338423.910 7 146319752.655 7       -25.979          45.232  
C04  38408325.562 7 200002220.553 7       -15.569          42.930    38408327.539 6 154654409.649 6       -12.093          39.774  
C22  22589692.720 6 117630469.552 6      1372.355          40.645                                                                  
C07  38192735.498 6 198879612.110 6      1390.198          41.228    38192738.219 7 153786332.069 7      1074.901          45.557  
C13  36627228.128 7 190727553.325 7     -1422.509          46.255    36627236.053 7 147482659.071 7     -1099.778          44.179  
C19  22792905.081 7 118688593.602 7      -906.429          46.400                                                                  
> 2020 11 19 06 00 15.0000000  0 18                     
G23  20280092.589 8 106572587.837 8      -386.379          48.574                                                                    20280092.291 8  83043566.655 8      -301.078          48.619  
G18  23041948.431 6 121086205.999 6     -3159.133          36.659                                                                                                                                  
G20  20035898.903 7 105289341.519 7      -827.490          46.983    20035898.073 7  82043626.812 7      -644.800          43.816                                                                  
G25  21635411.329 7 113694863.703 7      2270.872          46.795                                                                    21635417.090 7  88593400.508 7      1769.512          45.565  
G12  22113268.785 6 116205998.979 6       296.868          40.200                                                                    22113268.435 5  90550123.693 5       231.326          30.971  
G10  20821007.406 8 109415128.680 8      1763.643          49.780                                                                    20821007.729 7  85258544.956 7      1374.269          44.851  
G24  23303445.442 5 122460483.921 5     -3266.234          34.585                                                                                                                                  
R10  19418740.056 7 103512449.725 7      1659.794          45.675                                                                  
R09  20321767.788 7 108516719.830 7     -2297.410          47.421    20321768.173 7  84401894.762 7     -1786.876          45.953  
R07  20533424.002 7 109916597.074 7       990.440          47.678    20533424.033 7  85490705.437 7       770.341          43.395  
C01  37496781.215 7 195255558.541 7        -4.403          44.156    37496785.706 7 150983987.923 7        -3.182          44.334  
C08  37970022.039 6 197719829.926 6     -1737.060          37.127    37970023.325 6 152889505.370 6     -1343.081          36.886  
C03  36338431.403 7 189223729.179 7       -33.859          46.534    36338430.436 7 146319778.929 7       -26.069          45.154  
C04  38408328.642 7 200002236.591 7       -15.708          42.534    38408330.639 6 154654422.052 6       -12.230          39.630  
C22  22589429.277 6 117629097.785 6      1371.740          40.803                                                                  
C07  38192468.649 6 198878222.502 6      1389.916          40.917    38192471.352 7 153785257.529 7      1074.701          45.613  
C13  36627501.362 7 190728976.104 7     -1422.702          46.265    36627509.303 7 147483759.258 7     -1100.069          44.437  
C19  22793079.279 7 118689500.524 7      -906.960          46.565                                                                  
> 2020 11 19 06 00 16.0000000  0 18                     
G23  20280166.194 8 106572974.654 8      -387.308          48.575                                                                    20280165.903 8  83043868.064 8      -301.803          48.563  
G18  23042549.558 5 121089365.337 5     -3160.111          35.731                                                                                                                                  
G20  20036056.470 7 105290169.577 7      -828.637          47.136    20036055.666 7  82044272.048 7      -645.693          43.986                                                                  
G25  21634979.269 7 113692593.119 7      2270.109          46.800                                                                    21634985.014 7  88591631.219 7      1768.917          45.236  
G12  22113212.462 6 116205702.614 6       295.785          40.712                                                                    22113212.121 5  90549892.769 5       230.484          31.592  
G10  20820671.867 8 109413365.400 8      1762.979          49.703                                                                    20820672.186 7  85257170.973 7      1373.751          44.981  
G24  23304065.522 5 122463750.247 5     -3267.570          34.791                                                                                                                                  
R10  19418428.810 7 103510790.571 7      1658.500          45.412                                                                  
R09  20322198.153 7 108519017.987 7     -2298.749          47.093    20322198.567 7  84403682.217 7     -1787.917          45.927  
R07  20533239.027 7 109915606.899 7       989.853          47.580    20533239.096 7  85489935.300 7       769.885          43.711  
C01  37496782.078 7 195255563.010 7        -4.712          44.053    37496786.572 7 150983991.396 7        -3.744          44.336  
C08  37970355.663 6 197721567.235 6     -1737.549          37.652    37970356.951 6 152890848.779 6     -1343.616          36.392  
C03  36338437.946 7 189223763.229 7       -34.308          46.344    36338436.986 7 146319805.274 7       -26.558          45.269  
C04  38408331.723 7 200002252.708 7       -16.469          42.755    38408333.729 6 154654434.509 6       -12.468          39.635  
C22  22589165.898 6 117627726.238 6      1371.110          40.612                                                                  
C07  38192201.814 6 198876832.984 6      1389.106          40.951    38192204.505 7 153784183.051 7      1074.283          45.481  
C13  36627774.641 7 190730399.098 7     -1423.312          46.267    36627782.578 7 147484859.596 7     -1100.458          44.438  
C19  22793253.543 7 118690407.815 7      -907.552          46.793                                                                  
> 2020 11 19 06 00 17.0000000  0 18                     
G23  20280239.969 8 106573362.354 8      -388.029          48.579                                                                    20280239.679 8  83044170.164 8      -302.365          48.575  
G18  23043150.318 5 121092524.936 5     -3159.028          33.926                                                                                                                                  
G20  20036214.223 7 105290998.562 7      -829.514          47.197    20036213.434 7  82044918.010 7      -646.376          43.699                                                                  
G25  21634547.335 7 113690323.250 7      2269.571          47.057                                                                    21634553.072 7  88589862.486 7      1768.496          45.344  
G12  22113156.314 6 116205407.191 6       295.225          40.978                                                                    22113155.984 5  90549662.581 5       230.050          30.508  
G10  20820336.468 8 109411602.900 8      1762.250          49.614                                                                    20820336.812 7  85255797.599 7      1373.184          44.843  
G24  23304685.952 5 122467016.775 5     -3266.552          35.322                                                                                                                                  
R10  19418117.782 7 103509132.580 7      1657.420          45.398                                                                  
R09  20322628.717 7 108521317.188 7     -2299.691          47.323    20322629.162 7  84405470.483 7     -1788.650          45.877  
R07  20533054.162 7 109914617.301 7       989.289          47.897    20533054.263 7  85489165.615 7       769.447          43.926  
C01  37496782.991 7 195255567.838 7        -5.088          44.128    37496787.497 7 150983995.126 7        -3.894          44.702  
C08  37970689.392 6 197723304.952 6     -1737.963          36.974    37970690.672 6 152892192.521 6     -1343.615          36.101  
C03  36338444.559 7 189223797.622 7       -34.550          46.099    36338443.591 7 146319831.856 7       -26.547          45.297  
C04  38408334.878 7 200002269.132 7       -16.569          42.081    38408336.885 6 154654447.236 6       -12.754          39.848  
C22  22588902.624 6 117626355.229 6      1370.779          39.694                                                                  
C07  38191935.022 6 198875443.787 6      1389.095          41.260    38191937.717 7 153783108.821 7      1074.132          45.842  
C13  36628048.000 7 190731822.546 7     -1423.634          46.210    36628055.949 7 147485960.295 7     -1100.733          44.053  
C19  22793427.941 7 118691315.738 7      -908.234          47.159                                                                  
> 2020 11 19 06 00 18.0000000  0 18                     
G23  20280313.979 8 106573751.309 8      -389.551          48.487                                                                    20280313.694 8  83044473.242 8      -303.550          48.450  
G18  23043751.209 5 121095685.390 5     -3160.621          32.949                                                                                                                                  
G20  20036372.235 7 105291828.843 7      -830.895          47.431    20036371.455 7  82045564.983 7      -647.451          43.443                                                                  
G25  21634115.618 7 113688054.503 7      2268.282          46.907                                                                    21634121.338 7  88588094.631 7      1767.493          44.629  
G12  22113100.403 6 116205113.060 6       293.619          41.400                                                                    22113099.929 4  90549433.394 4       228.800          29.880  
G10  20820001.277 8 109409841.497 8      1760.826          49.551                                                                    20820001.618 7  85254425.071 7      1372.072          45.007  
G24  23305308.025 6 122470284.099 6     -3267.733          36.080                                                                                                                                  
R10  19417807.032 7 103507476.124 7      1655.798          45.207                                                                  
R09  20323059.537 7 108523617.778 7     -2301.283          46.937    20323060.019 7  84407259.832 7     -1789.887          45.611  
R07  20532869.475 7 109913628.631 7       988.192          47.701    20532869.613 7  85488396.651 7       768.595          43.995  
C01  37496784.051 7 195255573.337 7        -5.804          44.663    37496788.556 7 150983999.366 7        -4.453          44.517  
C08  37971023.270 6 197725043.432 6     -1739.028          37.418    37971024.543 6 152893536.820 6     -1344.525          36.773  
C03  36338451.294 7 189223832.697 7       -35.444          46.264    36338450.332 7 146319858.984 7       -27.397          45.223  
C04  38408338.163 7 200002286.262 7       -17.357          42.472    38408340.182 6 154654460.481 6       -13.462          39.675  
C22  22588639.462 6 117624985.006 6      1369.991          39.276                                                                  
C07  38191668.391 6 198874055.308 6      1387.913          41.128    38191671.078 7 153782035.182 7      1073.353          45.671  
C13  36628321.523 7 190733246.826 7     -1424.713          46.362    36628329.480 7 147487061.634 7     -1101.512          43.996  
C19  22793602.528 7 118692224.650 7      -909.366          47.222                                                                  
> 2020 11 19 06 00 19.0000000  0 18                     
G23  20280388.137 8 106574141.017 8      -389.879          48.464                                                                    20280387.849 8  83044776.906 8      -303.806          48.649  
G18  23044351.777 5 121098846.144 5     -3161.392          30.008                                                                                                                                  
G20  20036530.387 7 105292659.920 7      -831.253          47.677    20036529.618 7  82046212.575 7      -647.731          43.415                                                                  
G25  21633684.017 7 113685786.401 7      2267.920          46.877                                                                    21633689.739 7  88586327.279 7      1767.210          44.233  
G12  22113044.676 7 116204819.771 7       292.960          42.004                                                                    22113044.185 5  90549204.878 5       228.288          30.319  
G10  20819666.210 8 109408080.720 8      1760.527          49.535                                                                    20819666.539 7  85253053.030 7      1371.838          45.283  
G24  23305929.434 6 122473551.687 6     -3267.925          36.064                                                                                                                                  
R10  19417496.494 7 103505820.712 7      1654.997          45.443                                                                  
R09  20323490.522 7 108525919.250 7     -2301.856          46.859    20323491.042 7  84409049.873 7     -1790.331          45.656  
R07  20532684.881 7 109912640.404 7       988.304          47.713    20532685.038 7  85487628.038 7       768.683          43.967  
C01  37496785.149 7 195255579.052 7        -5.767          44.232    37496789.653 7 150984003.790 7        -4.348          44.229  
C08  37971357.197 6 197726782.227 6     -1738.959          36.947    37971358.445 6 152894881.348 6     -1344.440          36.220  
C03  36338458.068 7 189223867.976 7       -35.274          46.237    36338457.101 7 146319886.264 7       -27.224          45.147  
C04  38408341.484 7 200002303.583 7       -17.393          42.685    38408343.499 6 154654473.864 6       -13.383          39.929  
C22  22588376.391 6 117623615.218 6      1369.757          39.361                                                                  
C07  38191401.795 6 198872667.062 6      1388.241          41.253    38191404.476 7 153780961.691 7      1073.497          45.428  
C13  36628595.119 7 190734671.483 7     -1424.659          46.581    36628603.080 7 147488163.273 7     -1101.649          43.893  
C19  22793777.218 7 118693134.080 7      -909.451          47.319                                                                  
> 2020 11 19 06 00 20.0000000  0 18                     
G23  20280462.301 8 106574530.751 8      -389.367          48.479                                                                    20280462.015 8  83045080.593 8      -303.406          48.683  
G18  23044951.870 5 121102006.259 5     -3158.729          30.832                                                                                                                                  
G20  20036688.562 7 105293491.070 7      -830.920          47.716    20036687.803 7  82046860.221 7      -647.472          43.176                                                                  
G25  21633252.378 7 113683518.148 7      2268.522          47.001                                                                    21633258.088 7  88584559.808 7      1767.679          44.269  
G12  22112988.961 7 116204526.533 7       293.780          42.229                                                                    22112988.394 5  90548976.388 5       228.926          30.416  
G10  20819331.116 8 109406319.837 8      1761.243          49.606                                                                    20819331.449 7  85251680.909 7      1372.395          45.319  
G24  23306551.389 5 122476818.750 5     -3266.779          35.657                                                                                                                                  
R10  19417185.997 7 103504165.595 7      1655.188          45.235                                                                  
R09  20323921.544 7 108528220.877 7     -2301.358          46.745    20323922.091 7  84410840.032 7     -1789.943          45.637  
R07  20532500.217 7 109911651.812 7       989.079          47.768    20532500.398 7  85486859.136 7       769.286          43.868  
C01  37496786.145 7 195255584.214 7        -4.417          44.140    37496790.652 7 150984007.794 7        -3.570          44.158  
C08  37971691.064 6 197728520.556 6     -1738.283          36.734    37971692.281 5 152896225.527 5     -1343.560          35.520  
C03  36338464.744 7 189223902.711 7       -34.143          46.161    36338463.766 7 146319913.124 7       -26.362          45.124  
C04  38408344.711 7 200002320.384 7       -16.172          42.581    38408346.733 6 154654486.856 6       -12.589          39.594  
C22  22588113.248 6 117622245.063 6      1370.554          39.736                                                                  
C07  38191135.103 6 198871278.306 6      1389.131          41.174    38191137.779 7 153779887.815 7      1074.272          45.613  
C13  36628868.632 7 190736095.720 7     -1423.646          46.556    36628876.595 7 147489264.579 7     -1100.890          43.750  
C19  22793951.867 7 118694043.282 7      -908.838          47.601                                                                  
> 2020 11 19 06 00 21.0000000  0 18                     
G23  20280536.394 8 106574920.167 8      -389.100          48.421                                                                    20280536.122 8  83045384.030 8      -303.199          48.784  
G18  23045552.006 5 121105165.759 5     -3159.468          30.292                                                                                                                                  
G20  20036846.676 7 105294321.942 7      -830.649          47.600    20036845.936 7  82047507.647 7      -647.261          43.888                                                                  
G25  21632820.647 7 113681249.429 7      2269.167          46.978                                                                    21632826.349 7  88582791.976 7      1768.183          43.890  
G12  22112933.201 7 116204233.060 7       293.809          42.814                                                                    22112932.425 5  90548747.708 5       228.947          31.160  
G10  20818995.936 8 109404558.495 8      1761.805          49.644                                                                    20818996.277 7  85250308.429 7      1372.832          45.263  
G24  23307172.860 5 122480085.008 5     -3265.772          35.541                                                                                                                                  
R10  19416875.489 7 103502510.429 7      1655.364          45.116                                                                  
R09  20324352.523 7 108530522.302 7     -2301.142          46.525    20324353.100 7  84412630.030 7     -1789.775          45.913  
R07  20532315.416 7 109910662.547 7       989.809          47.907    20532315.631 7  85486089.705 7       769.852          44.047  
C01  37496786.972 7 195255588.534 7        -3.865          44.071    37496791.480 7 150984011.129 7        -2.935          44.109  
C08  37972024.735 6 197730258.080 6     -1736.903          37.128    37972025.968 5 152897569.108 5     -1343.036          35.161  
C03  36338471.253 7 189223936.594 7       -33.336          46.143    36338470.269 7 146319939.329 7       -25.662          45.117  
C04  38408347.768 7 200002336.294 7       -15.146          42.649    38408349.793 6 154654499.167 6       -11.906          39.338  
C22  22587849.983 6 117620874.173 6      1371.515          39.289                                                                  
C07  38190868.247 6 198869888.694 6      1390.313          41.277    38190870.919 7 153778813.289 7      1074.873          45.612  
C13  36629142.005 7 190737519.231 7     -1423.043          46.319    36629149.976 7 147490365.325 7     -1100.419          43.694  
C19  22794126.404 7 118694951.902 7      -908.082          47.427                                                                  
> 2020 11 19 06 00 22.0000000  0 18                     
G23  20280610.370 8 106575308.892 8      -388.665          48.336                                                                    20280610.108 8  83045686.929 8      -302.860          48.831  
G18  23046152.111 5 121108324.003 5     -3158.697          31.316                                                                                                                                  
G20  20037004.673 7 105295152.164 7      -830.233          47.727    20037003.927 7  82048154.568 7      -646.938          43.662                                                                  
G25  21632388.770 7 113678979.906 7      2269.562          47.081                                                                    21632394.468 7  88581023.525 7      1768.492          43.453  
G12  22112877.321 7 116203938.955 7       294.077          43.193                                                                    22112876.484 5  90548518.533 5       229.156          30.269  
G10  20818660.608 8 109402796.345 8      1762.310          49.670                                                                    20818660.947 7  85248935.323 7      1373.226          45.211  
G24  23307794.370 5 122483350.076 5     -3264.910          35.684                                                                                                                                  
R10  19416564.902 7 103500854.839 7      1655.592          45.303                                                                  
R09  20324783.392 7 108532823.183 7     -2300.823          46.461    20324784.006 7  84414419.613 7     -1789.525          45.761  
R07  20532130.426 7 109909672.230 7       990.550          47.783    20532130.666 7  85485319.455 7       770.428          44.219  
C01  37496787.558 7 195255591.621 7        -2.754          44.232    37496792.080 7 150984013.512 7        -2.035          44.139  
C08  37972358.188 6 197731994.448 6     -1736.007          36.960    37972359.453 5 152898911.807 5     -1342.443          34.530  
C03  36338477.517 7 189223969.243 7       -32.308          46.210    36338476.544 7 146319964.571 7       -24.864          45.105  
C04  38408350.582 7 200002350.996 7       -14.155          42.679    38408352.612 6 154654510.533 6       -10.875          39.639  
C22  22587586.480 6 117619502.255 6      1372.169          39.566                                                                  
C07  38190601.169 6 198868497.886 6      1391.409          41.302    38190603.828 7 153777737.838 7      1075.726          45.290  
C13  36629415.169 7 190738941.662 7     -1422.175          46.394    36629423.142 7 147491465.227 7     -1099.554          43.725  
C19  22794300.763 7 118695859.607 7      -907.541          47.404                                                                  
> 2020 11 19 06 00 23.0000000  0 18                     
G23  20280684.379 8 106575697.840 8      -389.280          48.468                                                                    20280684.123 8  83045990.003 8      -303.338          48.719  
G18  23046752.507 5 121111481.961 5     -3157.930          33.867                                                                                                                                  
G20  20037162.729 7 105295982.662 7      -830.880          47.742    20037161.971 7  82048801.704 7      -647.443          43.566                                                                  
G25  21631956.900 7 113676710.446 7      2269.235          47.107                                                                    21631962.605 7  88579255.122 7      1768.239          43.293  
G12  22112821.489 7 116203645.121 7       293.539          43.757                                                                    22112820.430 5  90548289.574 5       228.735          30.731  
G10  20818325.291 8 109401034.283 8      1761.842          49.655                                                                    20818325.654 7  85247562.288 7      1372.862          45.248  
G24  23308415.417 5 122486614.912 5     -3265.166          33.980                                                                                                                                  
R10  19416254.426 7 103499199.755 7      1654.695          45.289                                                                  
R09  20325214.313 7 108535124.390 7     -2301.412          46.533    20325214.970 7  84416209.449 7     -1789.983          45.745  
R07  20531945.427 7 109908681.823 7       990.203          47.839    20531945.688 7  85484549.138 7       770.158          43.964  
C01  37496788.088 7 195255594.387 7        -2.899          44.238    37496792.601 7 150984015.640 7        -2.162          44.150  
C08  37972691.602 6 197733730.620 6     -1736.199          36.645    37972692.859 5 152900254.314 5     -1342.661          34.267  
C03  36338483.724 7 189224001.559 7       -32.229          46.281    36338482.754 7 146319989.567 7       -25.133          45.027  
C04  38408353.342 7 200002365.365 7       -14.179          42.268    38408355.388 6 154654521.655 6       -11.248          39.258  
C22  22587322.963 6 117618130.172 6      1371.932          39.660                                                                  
C07  38190334.031 6 198867106.782 6      1391.290          41.034    38190336.672 7 153776662.135 7      1075.596          45.673  
C13  36629688.290 7 190740363.889 7     -1422.373          46.325    36629696.279 7 147492564.981 7     -1099.846          43.833  
C19  22794475.120 7 118696767.289 7      -907.814          47.612                                                                  
> 2020 11 19 06 00 24.0000000  0 18                     
G23  20280758.525 8 106576087.464 8      -389.835          48.379                                                                    20280758.264 8  83046293.602 8      -303.771          48.739  
G18  23047353.172 5 121114640.180 5     -3158.740          35.218                                                                                                                                  
G20  20037320.919 7 105296813.869 7      -831.503          47.825    20037320.156 7  82049449.390 7      -647.929          43.044                                                                  
G25  21631525.134 7 113674441.528 7      2268.677          47.218                                                                    21631530.836 7  88577487.141 7      1767.804          42.884  
G12  22112765.792 7 116203352.035 7       292.664          44.102                                                                    22112764.604 5  90548061.204 5       228.055          31.532  
G10  20817990.085 8 109399272.759 8      1761.325          49.602                                                                    20817990.463 7  85246189.672 7      1372.460          45.409  
G24  23309036.569 5 122489879.765 5     -3264.789          34.518                                                                                                                                  
R10  19415944.132 7 103497545.627 7      1653.689          45.087                                                                  
R09  20325645.419 7 108537426.415 7     -2302.465          46.970    20325646.087 7  84417999.918 7     -1790.802          45.463  
R07  20531760.476 7 109907691.768 7       989.981          47.783    20531760.772 7  85483779.095 7       769.986          43.736  
C01  37496788.634 7 195255597.243 7        -2.909          44.350    37496793.156 7 150984017.850 7        -2.132          44.331  
C08  37973025.065 6 197735466.953 6     -1736.618          36.898    37973026.304 5 152901596.960 5     -1342.660          34.423  
C03  36338489.949 7 189224033.999 7       -32.433          46.361    36338488.986 7 146320014.644 7       -25.032          45.283  
C04  38408356.142 7 200002379.856 7       -14.269          42.452    38408358.183 6 154654532.845 6       -11.065          39.951  
C22  22587059.521 6 117616758.376 6      1371.822          39.760                                                                  
C07  38190066.924 6 198865715.823 6      1391.102          41.094    38190069.551 7 153775586.561 7      1075.599          45.652  
C13  36629961.472 7 190741786.386 7     -1422.518          46.583    36629969.448 7 147493664.941 7     -1099.889          43.789  
C19  22794649.545 7 118697675.384 7      -908.122          47.694                                                                  
> 2020 11 19 06 00 25.0000000  0 18                     
G23  20280832.795 8 106576477.755 8      -390.740          48.400                                                                    20280832.533 8  83046597.722 8      -304.476          48.687  
G18  23047953.995 6 121117798.497 6     -3158.319          36.568                                                                                                                                  
G20  20037479.243 7 105297645.777 7      -832.365          47.858    20037478.464 7  82050097.623 7      -648.602          43.390                                                                  
G25  21631093.454 7 113672173.104 7      2268.059          47.353                                                                    21631099.137 7  88575719.541 7      1767.323          42.710  
G12  22112710.250 7 116203059.629 7       292.032          43.984                                                                    22112708.990 5  90547833.358 5       227.563          30.276  
G10  20817654.971 8 109397511.757 8      1760.721          49.587                                                                    20817655.368 7  85244817.464 7      1371.990          45.137  
G24  23309657.529 5 122493144.836 5     -3264.763          33.310                                                                                                                                  
R10  19415633.986 7 103495892.433 7      1652.504          44.883                                                                  
R09  20326076.666 7 108539729.238 7     -2303.325          47.113    20326077.342 7  84419791.005 7     -1791.471          45.408  
R07  20531575.597 7 109906702.064 7       989.469          47.758    20531575.931 7  85483009.329 7       769.588          43.880  
C01  37496789.193 7 195255600.216 7        -3.183          43.987    37496793.738 7 150984020.154 7        -2.422          44.211  
C08  37973358.569 6 197737203.456 6     -1736.564          37.073    37973359.804 5 152902939.726 5     -1342.892          35.000  
C03  36338496.201 7 189224066.535 7       -32.585          46.250    36338495.226 7 146320039.797 7       -25.245          45.256  
C04  38408358.949 7 200002394.443 7       -14.655          42.468    38408361.007 6 154654544.120 6       -11.349          39.678  
C22  22586796.114 6 117615386.858 6      1371.420          39.722                                                                  
C07  38189799.832 6 198864325.000 6      1390.758          41.236    38189802.449 7 153774511.069 7      1075.366          45.423  
C13  36630234.690 7 190743209.110 7     -1422.814          46.539    36630242.675 7 147494765.073 7     -1100.202          43.767  
C19  22794824.060 7 118698583.889 7      -908.695          47.586                                                                  
> 2020 11 19 06 00 26.0000000  0 18                     
G23  20280907.161 8 106576868.554 8      -390.886          48.611                                                                    20280906.911 8  83046902.236 8      -304.590          48.712  
G18  23048555.034 6 121120956.898 6     -3158.425          36.760                                                                                                                                  
G20  20037637.685 7 105298478.262 7      -832.777          47.857    20037636.885 7  82050746.305 7      -648.923          43.940                                                                  
G25  21630661.842 7 113669905.079 7      2267.817          47.364                                                                    21630667.512 7  88573952.256 7      1767.135          42.353  
G12  22112654.820 7 116202767.822 7       291.786          44.510                                                                    22112653.664 5  90547605.991 5       227.374          30.543  
G10  20817319.933 8 109395751.149 8      1760.631          49.596                                                                    20817320.325 7  85243445.561 7      1371.919          45.359  
G24  23310279.037 5 122496409.972 5     -3264.817          32.162                                                                                                                                  
R10  19415323.962 7 103494240.046 7      1652.186          44.896                                                                  
R09  20326508.033 7 108542032.737 7     -2303.678          47.285    20326508.723 7  84421582.616 7     -1791.747          45.556  
R07  20531390.751 7 109905712.538 7       989.564          47.780    20531391.110 7  85482239.700 7       769.662          43.809  
C01  37496789.749 7 195255603.155 7        -2.810          43.795    37496794.318 7 150984022.428 7        -2.149          44.347  
C08  37973692.057 6 197738940.047 6     -1736.548          36.413    37973693.312 5 152904282.547 5     -1342.501          33.890  
C03  36338502.450 7 189224099.043 7       -32.371          46.159    36338501.471 7 146320064.945 7       -25.084          45.256  
C04  38408361.741 7 200002409.000 7       -14.350          42.542    38408363.793 6 154654555.372 6       -11.000          39.713  
C22  22586532.742 6 117614015.470 6      1371.478          39.683                                                                  
C07  38189532.748 6 198862934.136 6      1391.194          41.566    38189535.333 7 153773435.560 7      1075.717          45.463  
C13  36630507.945 7 190744631.989 7     -1422.828          46.363    36630515.931 7 147495865.343 7     -1100.214          43.684  
C19  22794998.627 7 118699492.673 7      -908.676          47.647                                                                  
> 2020 11 19 06 00 27.0000000  0 18                     
G23  20280981.571 8 106577259.569 8      -391.100          48.658                                                                    20280981.322 8  83047206.920 8      -304.757          48.578  
G18  23049156.113 6 121124114.985 6     -3157.650          37.664                                                                                                                                  
G20  20037796.171 7 105299310.985 7      -832.856          47.967    20037795.343 7  82051395.171 7      -648.986          43.198                                                                  
G25  21630230.253 7 113667637.100 7      2268.112          47.604                                                                    21630235.931 7  88572185.008 7      1767.366          42.201  
G12  22112599.438 7 116202476.283 7       291.553          44.371                                                                    22112598.054 5  90547378.834 5       227.194          30.260  
G10  20816984.908 8 109393990.620 8      1760.669          49.705                                                                    20816985.310 7  85242073.717 7      1371.949          45.209  
G24  23310900.140 5 122499674.714 5     -3264.212          31.601                                                                                                                                  
R10  19415014.054 7 103492588.139 7      1651.838          44.709                                                                  
R09  20326939.457 7 108544336.580 7     -2303.942          47.422    20326940.161 7  84423374.491 7     -1791.953          45.455  
R07  20531205.870 7 109904722.840 7       989.901          47.688    20531206.263 7  85481469.935 7       769.924          43.809  
C01  37496790.256 7 195255605.769 7        -2.360          43.752    37496794.830 7 150984024.448 7        -1.876          44.314  
C08  37974025.508 5 197740676.340 5     -1736.260          35.943    37974026.770 5 152905625.185 5     -1342.410          33.327  
C03  36338508.623 7 189224131.192 7       -31.809          46.210    36338507.646 7 146320089.794 7       -24.632          45.153  
C04  38408364.471 7 200002423.206 7       -14.098          42.452    38408366.531 6 154654566.376 6       -10.891          39.782  
C22  22586269.348 6 117612643.916 6      1371.543          39.791                                                                  
C07  38189265.594 6 198861542.972 6      1391.602          41.516    38189268.170 7 153772359.822 7      1075.967          45.412  
C13  36630781.157 7 190746054.624 7     -1422.469          46.374    36630789.130 7 147496965.405 7     -1099.923          43.644  
C19  22795173.179 7 118700401.397 7      -908.514          47.741                                                                  
> 2020 11 19 06 00 28.0000000  0 18                     
G23  20281056.000 8 106577650.663 8      -391.079          48.716                                                                    20281055.755 8  83047511.666 8      -304.740          48.743  
G18  23049757.146 6 121127272.713 6     -3157.755          38.227                                                                                                                                  
G20  20037954.680 8 105300143.847 8      -832.959          48.030    20037953.851 7  82052044.147 7      -649.066          43.245                                                                  
G25  21629798.663 7 113665369.093 7      2267.845          47.767                                                                    21629804.336 7  88570417.740 7      1767.159          42.064  
G12  22112544.080 7 116202184.880 7       291.253          44.310                                                                    22112542.687 5  90547151.788 5       226.963          30.055  
G10  20816649.879 8 109392230.053 8      1760.636          49.636                                                                    20816650.300 7  85240701.845 7      1371.923          45.301  
G24  23311520.883 5 122502939.099 5     -3263.210          30.988                                                                                                                                  
R10  19414704.235 7 103490936.604 7      1651.300          44.533                                                                  
R09  20327370.927 7 108546640.614 7     -2304.121          47.649    20327371.630 7  84425166.514 7     -1792.094          45.465  
R07  20531020.933 7 109903732.881 7       990.061          47.728    20531021.372 7  85480699.966 7       770.048          43.737  
C01  37496790.664 7 195255607.913 7        -1.968          43.810    37496795.257 7 150984026.096 7        -1.465          44.290  
C08  37974358.885 6 197742412.238 6     -1735.662          36.325    37974360.146 5 152906967.516 5     -1342.481          33.206  
C03  36338514.719 7 189224162.900 7       -31.589          46.236    36338513.741 7 146320114.300 7       -24.246          45.298  
C04  38408367.107 7 200002436.949 7       -13.260          42.559    38408369.164 6 154654577.015 6       -10.587          39.793  
C22  22586005.867 6 117611272.054 6      1371.923          40.108                                                                  
C07  38188998.353 6 198860151.356 6      1392.126          41.402    38189000.927 7 153771283.741 7      1076.373          45.399  
C13  36631054.296 7 190747476.935 7     -1422.059          46.327    36631062.270 7 147498065.223 7     -1099.659          43.705  
C19  22795347.700 7 118701309.973 7      -908.570          47.788                                                                  
> 2020 11 19 06 00 29.0000000  0 18                     
G23  20281130.491 8 106578042.122 8      -391.776          48.718                                                                    20281130.258 8  83047816.697 8      -305.283          48.688  
G18  23050358.183 6 121130430.302 6     -3157.865          38.658                                                                                                                                  
G20  20038113.269 7 105300977.115 7      -833.611          47.965    20038112.423 7  82052693.438 7      -649.574          43.413                                                                  
G25  21629367.107 7 113663101.274 7      2267.721          47.697                                                                    21629372.794 7  88568650.621 7      1767.063          42.234  
G12  22112488.779 7 116201893.880 7       290.651          44.193                                                                    22112487.297 5  90546925.052 5       226.494          30.070  
G10  20816314.889 8 109390469.700 8      1760.195          49.580                                                                    20816315.314 7  85239330.139 7      1371.579          45.398  
G24  23312142.247 4 122506203.335 4     -3264.239          29.448                                                                                                                                  
R10  19414394.502 7 103489285.689 7      1650.373          44.323                                                                  
R09  20327802.496 7 108548945.152 7     -2304.941          47.753    20327803.181 7  84426958.931 7     -1792.732          45.309  
R07  20530836.009 7 109902742.931 7       989.861          47.757    20530836.481 7  85479930.003 7       769.891          43.745  
C01  37496791.028 7 195255609.838 7        -1.754          43.998    37496795.639 7 150984027.600 7        -1.657          44.209  
C08  37974692.273 6 197744148.039 6     -1735.552          36.028    37974693.516 5 152908309.689 5     -1341.839          33.365  
C03  36338520.764 7 189224194.397 7       -31.578          46.299    36338519.792 7 146320138.661 7       -24.408          45.270  
C04  38408369.707 7 200002450.513 7       -13.391          42.568    38408371.755 6 154654587.474 6       -10.369          39.658  
C22  22585742.390 6 117609900.180 6      1371.765          39.578                                                                  
C07  38188731.093 6 198858759.574 6      1391.547          41.528    38188733.641 7 153770207.518 7      1076.124          45.343  
C13  36631327.428 7 190748899.199 7     -1422.313          46.316    36631335.398 7 147499164.998 7     -1099.855          43.540  
C19  22795522.238 7 118702218.653 7      -908.912          47.801                                                                  
> 2020 11 19 06 00 30.0000000  0 17                     
G23  20281204.971 8 106578433.533 8      -389.981          48.713                                                                    20281204.748 8  83048121.690 8      -303.884          48.705  
G18  23050959.063 6 121133587.312 6     -3155.071          38.784                                                                                                                                  
G20  20038271.855 8 105301810.375 8      -831.791          48.076    20038270.999 7  82053342.721 7      -648.157          43.551                                                                  
G25  21628935.517 7 113660833.296 7      2269.456          47.525                                                                    21628941.223 7  88566883.376 7      1768.416          42.547  
G12  22112433.496 7 116201602.900 7       292.530          43.868                                                                    22112431.762 5  90546698.331 5       227.959          30.276  
G10  20815979.868 8 109388709.179 8      1762.058          49.603                                                                    20815980.318 7  85237958.302 7      1373.031          45.490  
R10  19414084.820 7 103487635.005 7      1652.060          44.268                                                                  
R09  20328234.063 7 108551249.767 7     -2303.116          47.976    20328234.750 7  84428751.405 7     -1791.313          45.339  
R07  20530651.018 7 109901752.607 7       992.102          47.701    20530651.521 7  85479159.751 7       771.635          43.746  
C01  37496791.293 7 195255611.198 7         0.319          43.894    37496795.900 7 150984028.629 7         0.351          44.443  
C08  37975025.522 6 197745883.324 6     -1733.598          36.285    37975026.768 5 152909651.546 5     -1340.260          32.485  
C03  36338526.698 7 189224225.288 7       -29.140          46.340    36338525.721 7 146320162.546 7       -22.508          45.242  
C04  38408372.192 7 200002463.479 7       -11.212          42.787    38408374.238 6 154654597.499 6        -8.552          39.623  
C22  22585478.831 6 117608527.886 6      1373.909          39.733                                                                  
C07  38188463.709 6 198857367.199 6      1394.294          41.350    38188466.253 7 153769130.867 7      1077.968          45.378  
C13  36631600.469 7 190750321.011 7     -1420.171          46.333    36631608.440 7 147500264.428 7     -1098.179          43.527  
C19  22795696.722 7 118703127.022 7      -906.712          47.832                                                                  
> 2020 11 19 06 00 31.0000000  0 17                     
G23  20281278.841 8 106578821.733 8      -387.559          48.664                                                                    20281278.631 8  83048424.183 8      -301.996          48.708  
G18  23051559.143 6 121136740.653 6     -3152.359          38.634                                                                                                                                  
G20  20038429.835 7 105302640.472 7      -829.461          47.930    20038428.958 7  82053989.545 7      -646.340          43.194                                                                  
G25  21628503.283 7 113658561.934 7      2272.325          47.575                                                                    21628509.016 7  88565113.498 7      1770.653          42.109  
G12  22112377.627 7 116201308.782 7       294.920          43.596                                                                    22112375.643 5  90546469.165 5       229.823          30.057  
G10  20815644.207 8 109386945.319 8      1764.665          49.660                                                                    20815644.674 7  85236583.864 7      1375.062          45.451  
R10  19413774.573 7 103485981.334 7      1654.279          44.253                                                                  
R09  20328665.050 7 108553551.235 7     -2300.823          47.992    20328665.734 7  84430541.434 7     -1789.530          45.348  
R07  20530465.342 7 109900758.674 7       994.784          47.660    20530465.889 7  85478386.693 7       773.721          43.685  
C01  37496790.827 7 195255608.815 7         3.288          43.977    37496795.444 7 150984026.793 7         2.616          44.323  
C08  37975358.061 6 197747614.983 6     -1730.464          36.118    37975359.277 5 152910990.590 5     -1338.195          32.085  
C03  36338531.916 7 189224252.463 7       -26.204          46.209    36338530.935 7 146320183.553 7       -20.150          45.305  
C04  38408373.959 7 200002472.695 7        -8.122          42.596    38408376.010 6 154654604.634 6        -6.495          39.752  
C22  22585214.580 6 117607152.024 6      1376.644          39.773                                                                  
C07  38188195.610 6 198855971.154 6      1397.033          41.652    38188198.144 7 153768051.342 7      1080.249          45.241  
C13  36631872.829 7 190751739.231 7     -1417.223          46.342    36631880.799 7 147501361.082 7     -1095.972          43.696  
C19  22795870.544 7 118704031.985 7      -904.151          47.763                                                                  
> 2020 11 19 06 00 32.0000000  0 17                     
G23  20281352.564 8 106579209.181 8      -387.780          48.716                                                                    20281352.360 8  83048726.090 8      -302.168          48.572  
G18  23052159.022 6 121139892.747 6     -3152.347          38.540                                                                                                                                  
G20  20038587.678 7 105303469.835 7      -829.582          47.911    20038586.787 7  82054635.798 7      -646.434          43.545                                                                  
G25  21628070.888 7 113656289.699 7      2272.139          47.436                                                                    21628076.629 6  88563342.942 6      1770.510          41.905  
G12  22112321.616 7 116201013.943 7       294.449          43.051                                                                    22112319.586 4  90546239.438 4       229.456          29.677  
G10  20815308.382 8 109385180.559 8      1764.574          49.690                                                                    20815308.854 7  85235208.725 7      1374.991          45.400  
R10  19413464.226 7 103484327.163 7      1653.719          44.225                                                                  
R09  20329095.913 8 108555852.066 8     -2301.036          48.037    20329096.590 7  84432330.968 7     -1789.696          45.290  
R07  20530279.459 7 109899763.609 7       994.890          47.529    20530280.038 7  85477612.756 7       773.804          43.738  
C01  37496790.117 7 195255605.134 7         3.589          43.950    37496794.741 7 150984023.947 7         2.769          44.233  
C08  37975690.361 5 197749345.402 5     -1730.254          35.872    37975691.566 5 152912328.624 5     -1337.854          31.007  
C03  36338536.879 7 189224278.326 7       -25.846          46.357    36338535.898 7 146320203.564 7       -20.088          45.337  
C04  38408375.492 7 200002480.608 7        -8.097          42.735    38408377.538 6 154654610.748 6        -6.237          39.682  
C22  22584950.105 6 117605775.026 6      1376.879          40.045                                                                  
C07  38187927.272 6 198854573.814 6      1397.266          41.335    38187929.791 7 153766970.816 7      1080.633          45.208  
C13  36632144.961 7 190753156.276 7     -1417.122          46.372    36632152.932 7 147502456.829 7     -1095.779          43.610  
C19  22796044.168 7 118704935.934 7      -904.078          47.702                                                                  
> 2020 11 19 06 00 33.0000000  0 17                     
G23  20281426.442 8 106579597.410 8      -388.527          48.734                                                                    20281426.253 8  83049028.606 8      -302.750          48.576  
G18  23052759.042 6 121143045.120 6     -3152.630          38.224                                                                                                                                  
G20  20038745.673 7 105304300.053 7      -830.525          47.876    20038744.775 7  82055282.715 7      -647.168          43.610                                                                  
G25  21627638.606 7 113654018.110 7      2271.323          47.180                                                                    21627644.360 6  88561572.890 6      1769.875          41.904  
G12  22112265.749 7 116200719.943 7       293.744          42.890                                                                    22112263.575 5  90546010.363 5       228.907          31.312  
G10  20814972.676 8 109383416.460 8      1763.947          49.693                                                                    20814973.163 7  85233834.102 7      1374.503          45.492  
R10  19413154.101 7 103482674.057 7      1652.699          44.124                                                                  
R09  20329526.962 8 108558153.832 8     -2302.156          48.243    20329527.611 7  84434121.226 7     -1790.568          45.272  
R07  20530093.664 7 109898768.995 7       994.465          47.517    20530094.273 7  85476839.169 7       773.473          43.652  
C01  37496789.442 7 195255601.682 7         3.344          44.077    37496794.087 7 150984021.264 7         2.768          44.399  
C08  37976022.745 6 197751076.130 6     -1730.808          36.005    37976023.931 5 152913666.917 5     -1337.878          30.538  
C03  36338541.896 7 189224304.434 7       -26.255          46.295    36338540.907 7 146320223.742 7       -20.155          45.358  
C04  38408377.058 7 200002488.757 7        -8.267          42.688    38408379.097 6 154654617.037 6        -6.224          39.648  
C22  22584685.738 6 117604398.443 6      1376.457          39.755                                                                  
C07  38187658.989 6 198853176.736 6      1396.723          41.386    38187661.482 7 153765890.490 7      1080.330          45.072  
C13  36632417.161 7 190754573.729 7     -1417.626          46.108    36632425.138 7 147503552.862 7     -1095.939          43.546  
C19  22796217.890 7 118705840.425 7      -904.621          47.647                                                                  
> 2020 11 19 06 00 34.0000000  0 17                     
G23  20281500.408 8 106579986.087 8      -389.169          48.737                                                                    20281500.227 8  83049331.470 8      -303.250          48.462  
G18  23053358.998 6 121146197.432 6     -3152.217          38.196                                                                                                                                  
G20  20038903.764 7 105305130.736 7      -831.170          47.886    20038902.852 7  82055929.997 7      -647.670          43.276                                                                  
G25  21627206.387 7 113651746.821 7      2270.850          47.232                                                                    21627212.139 7  88559803.068 7      1769.507          42.437  
G12  22112210.020 7 116200426.464 7       292.903          42.464                                                                    22112207.646 5  90545781.695 5       228.252          31.199  
G10  20814637.038 8 109381652.680 8      1763.259          49.681                                                                    20814637.536 7  85232459.728 7      1373.967          45.475  
R10  19412844.110 7 103481021.665 7      1651.777          44.150                                                                  
R09  20329958.111 8 108560456.163 8     -2302.935          48.107    20329958.745 7  84435911.923 7     -1791.174          45.319  
R07  20529907.882 7 109897774.482 7       994.124          47.371    20529908.520 7  85476065.659 7       773.208          43.773  
C01  37496788.755 7 195255598.102 7         3.498          43.961    37496793.411 7 150984018.512 7         2.688          44.353  
C08  37976355.136 6 197752806.822 6     -1730.894          36.571    37976356.313 5 152915005.188 5     -1338.117          30.619  
C03  36338546.880 7 189224330.427 7       -26.288          46.313    36338545.897 7 146320243.841 7       -20.176          45.251  
C04  38408378.600 7 200002496.773 7        -8.379          42.468    38408380.656 6 154654623.251 6        -6.347          39.619  
C22  22584421.382 6 117603021.903 6      1376.137          40.075                                                                  
C07  38187390.682 6 198851779.541 6      1396.684          41.519    38187393.176 7 153764810.104 7      1080.183          45.022  
C13  36632689.376 7 190755991.198 7     -1417.826          46.117    36632697.358 7 147504648.963 7     -1096.448          43.594  
C19  22796391.644 7 118706745.109 7      -905.035          47.305                                                                  
> 2020 11 19 06 00 35.0000000  0 17                     
G23  20281574.514 8 106580375.517 8      -389.427          48.793                                                                    20281574.346 8  83049634.922 8      -303.451          48.377  
G18  23053959.098 6 121149350.044 6     -3152.332          37.712                                                                                                                                  
G20  20039062.022 7 105305962.234 7      -831.546          47.939    20039061.077 7  82056577.915 7      -647.963          43.064                                                                  
G25  21626774.287 7 113649476.150 7      2270.667          47.083                                                                    21626780.044 7  88558033.725 7      1769.363          42.572  
G12  22112154.430 7 116200133.783 7       292.642          42.235                                                                    22112151.862 5  90545553.652 5       228.049          31.006  
G10  20814301.513 8 109379889.521 8      1763.101          49.728                                                                    20814302.036 7  85231085.839 7      1373.844          45.362  
R10  19412534.302 7 103479370.310 7      1651.229          44.416                                                                  
R09  20330389.443 8 108562759.420 8     -2303.447          48.307    20330390.041 7  84437703.342 7     -1791.573          45.403  
R07  20529722.181 7 109896780.389 7       994.155          47.155    20529722.842 7  85475292.475 7       773.232          43.773  
C01  37496788.113 7 195255594.747 7         3.789          44.131    37496792.782 7 150984015.921 7         2.833          44.229  
C08  37976687.543 5 197754537.817 5     -1730.775          35.948    37976688.665 4 152916343.694 4     -1337.696          29.447  
C03  36338551.915 7 189224356.609 7       -25.919          46.316    36338550.931 7 146320264.101 7       -20.031          45.354  
C04  38408380.183 7 200002505.018 7        -7.917          42.638    38408382.229 6 154654629.643 6        -6.291          39.915  
C22  22584157.079 6 117601645.743 6      1376.303          40.017                                                                  
C07  38187122.420 6 198850382.577 6      1397.077          41.397    38187124.898 7 153763729.893 7      1080.353          44.974  
C13  36632961.645 7 190757408.993 7     -1417.498          46.066    36632969.637 7 147505745.286 7     -1096.159          43.608  
C19  22796565.482 7 118707650.290 7      -904.938          47.078                                                                  
> 2020 11 19 06 00 36.0000000  0 17                     
G23  20281648.715 8 106580765.452 8      -390.528          48.727                                                                    20281648.557 8  83049938.767 8      -304.308          48.399  
G18  23054559.186 6 121152502.680 6     -3152.981          37.197                                                                                                                                  
G20  20039220.372 7 105306794.271 7      -832.614          47.807    20039219.402 7  82057226.252 7      -648.795          43.529                                                                  
G25  21626342.252 7 113647205.846 7      2269.640          46.728                                                                    21626348.023 7  88556264.670 7      1768.563          42.477  
G12  22112098.913 6 116199841.656 6       291.391          41.932                                                                    22112096.278 5  90545326.037 5       227.075          31.177  
G10  20813966.060 8 109378126.737 8      1762.321          49.767                                                                    20813966.595 7  85229712.243 7      1373.237          45.378  
R10  19412224.659 7 103477719.740 7      1649.679          44.374                                                                  
R09  20330820.880 8 108565063.310 8     -2304.631          48.301    20330821.458 7  84439495.254 7     -1792.494          45.483  
R07  20529536.508 7 109895786.484 7       993.499          47.195    20529537.200 7  85474519.436 7       772.721          43.909  
C01  37496787.459 7 195255591.361 7         2.730          44.097    37496792.138 7 150984013.286 7         2.231          44.392  
C08  37977019.948 5 197756268.820 5     -1731.866          35.837    37977021.085 4 152917682.246 4     -1339.049          29.285  
C03  36338556.936 7 189224382.749 7       -26.483          46.259    36338555.949 7 146320284.306 7       -20.532          45.220  
C04  38408381.762 7 200002513.219 7        -8.512          42.710    38408383.818 6 154654635.975 6        -6.695          39.762  
C22  22583892.815 6 117600269.693 6      1375.706          40.146                                                                  
C07  38186854.151 6 198848985.593 6      1396.576          41.324    38186856.619 7 153762649.658 7      1079.877          44.857  
C13  36633233.948 7 190758826.884 7     -1418.379          46.044    36633241.926 7 147506841.682 7     -1096.673          43.580  
C19  22796739.369 7 118708555.718 7      -905.961          46.752                                                                  
> 2020 11 19 06 00 37.0000000  0 17                     
G23  20281723.113 8 106581156.408 8      -391.579          48.689                                                                    20281722.963 8  83050243.407 8      -305.127          48.344  
G18  23055159.387 5 121155655.835 5     -3153.741          35.849                                                                                                                                  
G20  20039378.925 7 105307627.375 7      -833.691          47.892    20039377.941 7  82057875.417 7      -649.634          43.174                                                                  
G25  21625910.384 7 113644936.403 7      2269.137          46.578                                                                    21625916.160 7  88554496.281 7      1768.170          42.768  
G12  22112043.615 6 116199550.624 6       290.579          41.507                                                                    22112040.767 5  90545099.277 5       226.442          32.145  
G10  20813630.776 8 109376364.831 8      1761.369          49.843                                                                    20813631.319 7  85228339.329 7      1372.495          45.413  
R10  19411915.239 7 103476070.465 7      1648.666          44.565                                                                  
R09  20331252.526 8 108567368.359 8     -2305.695          48.293    20331253.091 7  84441288.066 7     -1793.321          45.569  
R07  20529350.977 7 109894793.278 7       992.783          47.322    20529351.689 7  85473746.940 7       772.164          43.960  
C01  37496786.874 7 195255588.376 7         2.816          43.918    37496791.564 7 150984011.003 7         1.991          44.281  
C08  37977352.484 5 197758000.351 5     -1732.419          35.745    37977353.610 4 152919021.155 4     -1339.374          28.997  
C03  36338562.035 7 189224409.338 7       -26.832          46.129    36338561.062 7 146320304.862 7       -20.698          45.284  
C04  38408383.419 7 200002521.865 7        -8.852          42.618    38408385.492 6 154654642.672 6        -7.017          39.716  
C22  22583628.655 6 117598894.302 6      1375.199          40.153                                                                  
C07  38186585.971 6 198847589.089 6      1396.388          41.512    38186588.422 7 153761569.786 7      1079.751          44.798  
C13  36633506.350 7 190760245.385 7     -1418.747          45.799    36633514.328 7 147507938.562 7     -1097.049          43.428  
C19  22796913.384 7 118709461.904 7      -906.555          46.341                                                                  
> 2020 11 19 06 00 38.0000000  0 17                     
G23  20281797.763 8 106581548.670 8      -393.017          48.693                                                                    20281797.615 8  83050549.065 8      -306.248          48.302  
G18  23055759.575 5 121158809.730 5     -3153.944          34.965                                                                                                                                  
G20  20039537.730 7 105308461.820 7      -835.219          47.876    20039536.738 7  82058525.629 7      -650.825          43.214                                                                  
G25  21625478.749 7 113642668.149 7      2267.545          46.173                                                                    21625484.537 7  88552728.820 7      1766.930          42.974  
G12  22111988.589 6 116199260.987 6       288.723          41.183                                                                    22111985.549 5  90544873.603 5       224.997          32.389  
G10  20813295.717 8 109374604.109 8      1760.001          49.855                                                                    20813296.269 7  85226967.337 7      1371.429          45.274  
R10  19411606.113 7 103474422.809 7      1646.797          44.596                                                                  
R09  20331684.465 8 108569674.857 8     -2307.301          48.324    20331684.996 7  84443082.005 7     -1794.571          45.438  
R07  20529165.615 7 109893801.054 7       991.643          47.283    20529166.369 7  85472975.208 7       771.277          43.681  
C01  37496786.445 7 195255586.183 7         1.670          43.967    37496791.141 7 150984009.294 7         1.233          44.280  
C08  37977685.146 6 197759732.698 6     -1733.044          36.557    37977686.259 4 152920404.20014     -1340.015          28.851  
C03  36338567.289 7 189224436.677 7       -27.797          46.392    36338566.310 7 146320325.998 7       -21.504          45.231  
C04  38408385.232 7 200002531.270 7        -9.995          42.690    38408387.285 6 154654649.920 6        -7.603          39.683  
C22  22583364.682 6 117597519.791 6      1374.069          40.366                                                                  
C07  38186317.929 6 198846193.383 6      1395.145          41.398    38186320.381 7 153760490.526 7      1078.952          44.733  
C13  36633778.922 7 190761664.756 7     -1419.938          45.905    36633786.898 7 147509036.102 7     -1097.926          43.267  
C19  22797087.600 7 118710369.150 7      -907.915          45.891                                                                  
> 2020 11 19 06 00 39.0000000  0 17                     
G23  20281872.577 8 106581941.793 8      -393.383          48.594                                                                    20281872.422 8  83050855.391 8      -306.534          48.327  
G18  23056359.910 5 121161964.044 5     -3154.038          33.634                                                                                                                                  
G20  20039696.710 7 105309297.176 7      -835.582          47.717    20039695.703 7  82059176.550 7      -651.108          43.439                                                                  
G25  21625047.243 7 113640400.605 7      2267.417          45.926                                                                    21625053.040 7  88550961.911 7      1766.829          42.891  
G12  22111933.737 6 116198972.261 6       288.188          40.916                                                                    22111930.643 5  90544648.637 5       224.578          33.546  
G10  20812960.802 8 109372844.115 8      1759.864          49.853                                                                    20812961.348 7  85225595.910 7      1371.322          45.549  
R10  19411297.236 7 103472776.291 7      1646.171          44.585                                                                  
R09  20332116.582 8 108571982.360 8     -2307.869          48.223    20332117.090 7  84444876.721 7     -1795.013          45.730  
R07  20528980.358 7 109892809.349 7       991.553          47.418    20528981.139 7  85472203.881 7       771.207          43.988  
C01  37496786.083 7 195255584.292 7         1.686          44.016    37496790.771 7 150984007.804 7         1.523          44.337  
C08  37978017.901 5 197761465.468 5     -1733.390          35.892    37978019.036 4 152921744.063 4     -1340.251          28.011  
C03  36338572.606 7 189224464.322 7       -27.683          46.207    36338571.613 7 146320347.371 7       -21.375          45.327  
C04  38408387.085 7 200002540.946 7        -9.759          42.542    38408389.149 6 154654657.427 6        -7.654          39.691  
C22  22583100.789 6 117596145.786 6      1373.815          40.425                                                                  
C07  38186049.969 6 198844797.975 6      1395.326          41.492    38186052.404 7 153759411.526 7      1078.980          44.914  
C13  36634051.581 7 190763084.555 7     -1419.861          45.636    36634059.572 7 147510133.976 7     -1097.900          43.402  
C19  22797261.920 7 118711276.991 7      -908.102          45.443                                                                  
> 2020 11 19 06 00 40.0000000  0 16                     
G23  20281947.537 8 106582335.692 8      -394.382          48.458                                                                    20281947.368 8  83051162.324 8      -307.312          48.349  
G20  20039855.838 7 105310133.337 7      -836.604          47.794    20039854.819 7  82059828.096 7      -651.905          43.654                                                                  
G25  21624615.867 7 113638133.702 7      2266.586          45.991                                                                    21624621.643 7  88549195.496 7      1766.180          43.120  
G12  22111878.999 6 116198684.342 6       287.424          41.168                                                                    22111875.794 5  90544424.297 5       223.982          33.088  
G10  20812626.004 8 109371084.763 8      1758.885          49.958                                                                    20812626.557 7  85224224.984 7      1370.558          45.424  
R10  19410988.539 7 103471130.837 7      1644.844          44.594                                                                  
R09  20332548.868 8 108574290.767 8     -2308.973          48.086    20332549.349 7  84446672.144 7     -1795.873          45.407  
R07  20528795.180 7 109891818.043 7       991.029          47.402    20528795.982 7  85471432.863 7       770.799          43.700  
C01  37496785.745 7 195255582.589 7         1.472          44.089    37496790.443 7 150984006.502 7         1.233          44.313  
C08  37978350.702 5 197763198.501 5     -1733.273          35.572                                                                  
C03  36338577.956 7 189224492.176 7       -28.167          46.260    36338576.964 7 146320368.911 7       -21.746          45.390  
C04  38408388.989 7 200002550.849 7       -10.244          42.650    38408391.061 6 154654665.079 6        -7.847          39.895  
C22  22582836.978 6 117594772.135 6      1373.561          40.574                                                                  
C07  38185782.052 6 198843402.830 6      1394.671          41.201    38185784.462 7 153758332.694 7      1078.628          44.834  
C13  36634324.316 7 190764504.729 7     -1420.453          45.554    36634332.293 7 147511232.138 7     -1098.255          43.452  
C19  22797436.319 7 118712185.355 7      -908.779          45.298                                                                  
> 2020 11 19 06 00 41.0000000  0 16                     
G23  20282022.678 8 106582730.560 8      -395.320          48.627                                                                    20282022.514 8  83051470.011 8      -308.043          48.106  
G20  20040015.166 7 105310970.522 7      -837.603          47.774    20040014.119 7  82060480.442 7      -652.684          42.981                                                                  
G25  21624184.652 7 113635867.630 7      2265.524          45.477                                                                    21624190.440 7  88547429.725 7      1765.350          43.102  
G12  22111824.481 6 116198397.450 6       286.480          40.550                                                                    22111821.309 5  90544200.758 5       223.246          33.911  
G10  20812291.367 8 109369326.254 8      1758.055          49.990                                                                    20812291.927 7  85222854.715 7      1369.912          45.416  
R10  19410680.078 7 103469486.664 7      1643.459          44.653                                                                  
R09  20332981.352 8 108576600.268 8     -2310.115          48.128    20332981.823 7  84448468.417 7     -1796.760          45.401  
R07  20528610.121 7 109890827.403 7       990.373          47.548    20528610.948 7  85470662.364 7       770.289          43.695  
C01  37496785.506 7 195255581.315 7         1.130          43.860    37496790.197 7 150984005.525 7         0.869          44.340  
C08  37978683.614 5 197764932.030 5     -1733.870          35.797    37978684.700 4 152924424.613 4     -1340.757          28.116  
C03  36338583.386 7 189224520.436 7       -28.467          46.100    36338582.394 7 146320390.770 7       -22.030          45.416  
C04  38408390.960 7 200002561.157 7       -10.300          42.447    38408393.050 6 154654673.068 6        -8.336          39.805  
C22  22582573.294 6 117593399.100 6      1372.540          40.514                                                                  
C07  38185514.206 6 198842008.098 6      1394.360          41.533    38185516.609 7 153757254.201 7      1078.344          44.804  
C13  36634597.146 7 190765925.460 7     -1420.947          45.558    36634605.120 7 147512330.741 7     -1098.749          43.448  
C19  22797610.842 7 118713094.416 7      -909.416          44.835                                                                  
> 2020 11 19 06 00 42.0000000  0 16                     
G23  20282098.009 8 106583126.477 8      -396.698          48.561                                                                    20282097.857 8  83051778.515 8      -309.117          48.038  
G20  20040174.695 7 105311808.793 7      -838.979          47.617    20040173.639 7  82061133.634 7      -653.755          43.625                                                                  
G25  21623753.610 7 113633602.492 7      2264.191          44.942                                                                    21623759.395 7  88545664.685 7      1764.310          43.210  
G12  22111770.161 6 116198111.689 6       285.206          40.404                                                                    22111766.928 5  90543978.098 5       222.252          34.230  
G10  20811956.903 8 109367568.669 8      1756.850          49.996                                                                    20811957.478 7  85221485.169 7      1368.973          45.362  
R10  19410371.873 7 103467843.807 7      1642.021          44.874                                                                  
R09  20333414.065 8 108578910.965 8     -2311.556          48.038    20333414.517 7  84450265.625 7     -1797.880          45.215  
R07  20528425.201 7 109889837.508 7       989.405          47.521    20528426.055 7  85469892.446 7       769.536          43.575  
C01  37496785.358 7 195255580.533 7         0.361          44.175    37496790.041 7 150984004.914 7         0.280          44.216  
C08  37979016.657 5 197766666.148 5     -1734.759          35.573                                                                  
C03  36338588.912 7 189224549.203 7       -29.230          46.143    36338587.916 7 146320413.010 7       -22.562          45.295  
C04  38408393.043 7 200002571.972 7       -11.096          42.280    38408395.107 6 154654681.414 6        -8.722          39.600  
C22  22582309.729 6 117592026.710 6      1371.906          40.629                                                                  
C07  38185246.495 6 198840613.903 6      1393.538          41.571    38185248.857 7 153756176.119 7      1077.710          44.569  
C13  36634870.109 7 190767346.835 7     -1421.982          45.444    36634878.069 7 147513429.835 7     -1099.572          43.612  
C19  22797785.504 7 118714004.267 7      -910.332          44.242                                                                  
> 2020 11 19 06 00 43.0000000  0 16                     
G23  20282173.472 8 106583523.060 8      -396.580          48.365                                                                    20282173.319 8  83052087.539 8      -309.025          48.015  
G20  20040334.362 7 105312647.775 7      -838.935          47.580    20040333.287 7  82061787.386 7      -653.720          42.864                                                                  
G25  21623322.657 7 113631337.829 7      2264.945          45.000                                                                    21623328.445 7  88543900.012 7      1764.896          43.423  
G12  22111715.952 6 116197826.648 6       285.107          39.764                                                                    22111712.690 5  90543755.994 5       222.173          33.952  
G10  20811622.543 8 109365811.604 8      1757.103          50.074                                                                    20811623.123 7  85220116.029 7      1369.170          45.379  
R10  19410063.864 7 103466201.908 7      1641.859          44.693                                                                  
R09  20333846.932 7 108581222.490 7     -2311.573          47.966    20333847.371 7  84452063.477 7     -1797.893          45.260  
R07  20528240.335 7 109888847.941 7       989.654          47.421    20528241.222 7  85469122.783 7       769.730          43.427  
C01  37496785.235 7 195255579.876 7         0.763          43.877    37496789.904 7 150984004.403 7         0.693          44.171  
C08  37979349.723 5 197768400.475 5     -1734.621          35.567    37979350.730 4 152927106.565 4     -1340.919          28.786  
C03  36338594.450 7 189224578.060 7       -28.603          46.031    36338593.451 7 146320435.328 7       -22.066          45.266  
C04  38408395.121 7 200002582.887 7       -10.844          42.212    38408397.198 6 154654689.840 6        -8.170          39.578  
C22  22582046.191 6 117590654.610 6      1372.004          40.354                                                                  
C07  38184978.771 6 198839219.806 6      1394.353          41.425    38184981.132 7 153755098.117 7      1078.177          44.608  
C13  36635143.108 7 190768768.439 7     -1421.324          45.222    36635151.075 7 147514529.105 7     -1099.003          43.667  
C19  22797960.249 7 118714914.551 7      -910.176          43.919                                                                  
> 2020 11 19 06 00 44.0000000  0 16                     
G23  20282249.031 8 106583920.134 8      -397.182          48.331                                                                    20282248.884 7  83052396.947 7      -309.494          47.989  
G20  20040494.124 7 105313487.279 7      -839.665          47.509    20040493.021 7  82062441.541 7      -654.288          43.328                                                                  
G25  21622891.774 7 113629073.530 7      2264.592          44.766                                                                    21622897.554 7  88542135.622 7      1764.620          43.455  
G12  22111661.801 6 116197542.112 6       284.739          39.549                                                                    22111658.553 5  90543534.281 5       221.884          34.034  
G10  20811288.248 8 109364054.895 8      1756.877          50.054                                                                    20811288.833 7  85218747.165 7      1368.995          45.434  
R10  19409755.997 7 103464560.784 7      1640.896          44.754                                                                  
R09  20334279.923 7 108583534.631 7     -2312.215          47.887    20334280.344 7  84453861.808 7     -1798.391          45.380  
R07  20528055.511 7 109887858.517 7       989.487          47.520    20528056.412 7  85468353.234 7       769.601          43.698  
C01  37496785.088 7 195255579.104 7         1.100          43.789    37496789.750 7 150984003.815 7         0.774          44.374  
C08  37979682.777 5 197770134.746 5     -1733.619          35.834    37979683.757 4 152928447.614 4     -1340.642          28.989  
C03  36338599.986 7 189224606.859 7       -28.528          46.104    36338598.979 7 146320457.587 7       -22.163          45.336  
C04  38408397.199 7 200002593.715 7       -10.612          42.298    38408399.273 6 154654698.208 6        -8.071          39.712  
C22  22581782.688 6 117589282.558 6      1372.439          40.288                                                                  
C07  38184711.046 6 198837825.665 6      1394.524          41.513    38184713.398 7 153754020.085 7      1078.128          44.584  
C13  36635416.134 7 190770190.120 7     -1421.651          45.250    36635424.096 7 147515628.437 7     -1099.301          43.703  
C19  22798135.028 7 118715825.047 7      -910.199          43.620                                                                  
> 2020 11 19 06 00 45.0000000  0 16                     
G23  20282324.638 8 106584317.468 8      -397.758          48.330                                                                    20282324.499 7  83052706.554 7      -309.943          47.937  
G20  20040653.939 7 105314327.097 7      -840.302          47.416    20040652.834 7  82063095.943 7      -654.785          43.624                                                                  
G25  21622460.905 7 113626809.381 7      2263.953          44.925                                                                    21622466.707 7  88540371.348 7      1764.121          43.932  
G12  22111607.715 6 116197257.937 6       284.127          39.419                                                                    22111604.600 5  90543312.847 5       221.406          34.659  
G10  20810953.980 8 109362298.331 8      1756.326          50.070                                                                    20810954.580 7  85217378.413 7      1368.566          45.636  
R10  19409448.217 7 103462920.203 7      1640.093          44.994                                                                  
R09  20334712.989 7 108585847.173 7     -2313.084          47.744    20334713.396 7  84455660.452 7     -1799.067          45.253  
R07  20527870.668 7 109886869.021 7       989.313          47.424    20527871.579 7  85467583.628 7       769.466          43.521  
C01  37496784.892 7 195255578.080 7         0.967          43.780    37496789.556 7 150984003.021 7         0.787          44.239  
C08  37980015.809 5 197771868.857 5     -1734.217          35.895    37980016.719 4 152929788.544 4     -1341.217          28.841  
C03  36338605.467 7 189224635.365 7       -28.586          46.026    36338604.451 7 146320479.629 7       -22.112          45.336  
C04  38408399.239 7 200002604.274 7       -10.641          42.269    38408401.307 6 154654706.397 6        -8.518          39.627  
C22  22581519.187 6 117587910.472 6      1371.623          40.611                                                                  
C07  38184443.278 6 198836431.283 6      1394.262          41.761    38184445.597 7 153752941.859 7      1078.058          44.329  
C13  36635689.122 7 190771611.637 7     -1421.734          45.056    36635697.080 7 147516727.645 7     -1099.379          43.531  
C19  22798309.822 7 118716735.579 7      -910.596          43.585                                                                  
> 2020 11 19 06 00 46.0000000  0 16                     
G23  20282400.374 8 106584715.436 8      -398.608          48.349                                                                    20282400.227 7  83053016.655 7      -310.606          47.903  
G20  20040813.870 7 105315167.585 7      -841.079          47.533    20040812.764 7  82063750.867 7      -655.389          43.280                                                                  
G25  21622030.147 7 113624545.715 7      2263.090          44.797                                                                    21622035.942 7  88538607.449 7      1763.448          44.126  
G12  22111553.743 6 116196974.487 6       282.808          39.106                                                                    22111550.603 5  90543091.972 5       220.374          34.171  
G10  20810619.810 8 109360542.270 8      1755.388          50.105                                                                    20810620.433 7  85216010.053 7      1367.834          45.482  
R10  19409140.593 7 103461280.511 7      1638.859          44.946                                                                  
R09  20335146.185 7 108588160.460 7     -2314.015          47.569    20335146.596 7  84457459.675 7     -1799.791          45.293  
R07  20527685.887 7 109885879.806 7       988.631          47.234    20527686.802 7  85466814.239 7       768.936          43.745  
C01  37496784.709 7 195255577.126 7         0.676          44.067    37496789.379 7 150984002.289 7         0.425          44.436  
C08  37980348.858 6 197773603.097 6     -1734.804          36.056    37980349.719 5 152931129.099 5     -1341.622          30.569  
C03  36338610.956 7 189224663.943 7       -28.930          46.170    36338609.954 7 146320501.746 7       -22.438          45.309  
C04  38408401.284 7 200002614.930 7       -11.023          42.124    38408403.347 6 154654714.608 6        -8.502          39.364  
C22  22581255.720 6 117586538.587 6      1371.216          40.413                                                                  
C07  38184175.524 6 198835036.987 6      1393.771          41.599    38184177.836 7 153751863.692 7      1077.889          44.351  
C13  36635962.152 7 190773033.361 7     -1422.153          45.075    36635970.116 7 147517827.021 7     -1099.670          43.709  
C19  22798484.685 7 118717646.491 7      -911.550          43.387                                                                  
> 2020 11 19 06 00 47.0000000  0 16                     
G23  20282476.323 8 106585114.507 8      -399.551          48.443                                                                    20282476.160 7  83053327.619 7      -311.340          47.800  
G20  20040974.024 7 105316009.226 7      -842.144          47.445    20040972.921 7  82064406.689 7      -656.219          43.162                                                                  
G25  21621599.547 7 113622282.995 7      2262.421          44.823                                                                    21621605.348 7  88536844.288 7      1762.926          44.133  
G12  22111499.966 6 116196692.175 6       281.762          39.551                                                                    22111496.793 5  90542871.983 5       219.557          33.695  
G10  20810285.827 8 109358787.192 8      1754.524          50.076                                                                    20810286.451 7  85214642.459 7      1367.161          45.471  
R10  19408833.257 7 103459642.211 7      1637.808          45.035                                                                  
R09  20335579.624 7 108590475.010 7     -2315.181          47.311    20335580.032 7  84459259.882 7     -1800.697          45.322  
R07  20527501.253 7 109884891.359 7       988.143          47.286    20527502.176 7  85466045.449 7       768.557          43.655  
C01  37496784.633 7 195255576.729 7         0.242          44.057    37496789.305 7 150984001.969 7         0.114          44.371  
C08  37980682.013 5 197775337.963 5     -1734.908          35.873    37980682.812 5 152932470.548 5     -1341.570          30.609  
C03  36338616.548 7 189224693.078 7       -29.372          45.964    36338615.550 7 146320524.261 7       -22.656          45.547  
C04  38408403.428 6 200002626.114 6       -11.509          41.935    38408405.493 6 154654723.254 6        -8.771          39.093  
C22  22580992.391 6 117585167.432 6      1370.802          40.437                                                                  
C07  38183907.885 6 198833643.270 6      1393.602          41.823    38183910.181 7 153750786.001 7      1077.439          44.246  
C13  36636235.320 7 190774455.780 7     -1422.759          45.052    36636243.265 7 147518926.915 7     -1100.155          43.693  
C19  22798659.730 7 118718558.225 7      -912.142          43.633                                                                  
> 2020 11 19 06 00 48.0000000  0 16                     
G23  20282552.482 8 106585514.722 8      -400.654          48.461                                                                    20282552.323 7  83053639.472 7      -312.200          47.660  
G20  20041134.406 7 105316852.039 7      -843.239          47.334    20041133.296 7  82065063.422 7      -657.072          43.876                                                                  
G25  21621169.153 7 113620021.288 7      2261.579          44.672                                                                    21621174.950 7  88535081.918 7      1762.269          44.538  
G12  22111446.390 6 116196411.068 6       280.449          39.382                                                                    22111443.182 5  90542652.928 5       218.529          34.066  
G10  20809952.033 8 109357033.111 8      1753.662          50.061                                                                    20809952.675 7  85213275.642 7      1366.490          45.454  
R10  19408526.180 7 103458005.333 7      1636.325          44.844                                                                  
R09  20336013.286 7 108592790.800 7     -2316.181          47.274    20336013.703 7  84461061.053 7     -1801.474          45.391  
R07  20527316.768 7 109883903.756 7       987.312          47.156    20527317.699 7  85465277.317 7       767.911          43.437  
C01  37496784.677 7 195255576.902 7        -0.311          43.762    37496789.340 7 150984002.100 7        -0.150          44.317  
C08  37981015.312 5 197777073.519 5     -1736.183          35.523    37981016.058 5 152933812.584 5     -1341.829          31.160  
C03  36338622.252 7 189224722.782 7       -29.872          46.124    36338621.258 7 146320547.230 7       -23.047          45.010  
C04  38408405.680 7 200002637.849 7       -11.910          42.223    38408407.764 6 154654732.344 6        -9.106          39.696  
C22  22580729.203 6 117583797.023 6      1370.105          40.662                                                                  
C07  38183640.354 6 198832250.132 6      1393.304          41.774    38183642.634 7 153749708.726 7      1077.202          44.226  
C13  36636508.626 7 190775878.926 7     -1423.178          44.772    36636516.570 7 147520027.390 7     -1100.628          43.665  
C19  22798834.948 7 118719470.861 7      -912.678          43.833                                                                  
> 2020 11 19 06 00 49.0000000  0 16                     
G23  20282628.805 8 106585915.817 8      -401.537          48.493                                                                    20282628.647 7  83053952.010 7      -312.888          47.787  
G20  20041294.953 7 105317695.774 7      -844.070          47.279    20041293.845 7  82065720.875 7      -657.720          43.439                                                                  
G25  21620738.902 7 113617760.343 7      2260.468          45.445                                                                    21620744.699 7  88533320.140 7      1761.403          44.669  
G12  22111392.974 6 116196130.846 6       280.308          39.346                                                                    22111389.744 5  90542434.552 5       218.415          33.523  
G10  20809618.378 8 109355279.778 8      1752.982          50.071                                                                    20809619.027 7  85211909.408 7      1365.959          45.555  
R10  19408219.335 7 103456369.628 7      1635.207          44.937                                                                  
R09  20336447.152 7 108595107.654 7     -2317.379          47.165    20336447.583 7  84462863.051 7     -1802.406          45.416  
R07  20527132.377 7 109882916.730 7       986.839          47.170    20527133.329 7  85464509.631 7       767.542          43.701  
C01  37496784.762 7 195255577.390 7        -0.487          43.747    37496789.424 7 150984002.490 7        -0.564          44.443  
C08  37981348.707 5 197778809.416 5     -1735.638          35.509    37981349.427 5 152935154.922 5     -1342.067          32.726  
C03  36338628.012 7 189224752.803 7       -30.059          46.197    36338627.026 7 146320570.452 7       -23.314          45.263  
C04  38408408.000 7 200002649.924 7       -12.104          42.564    38408410.102 6 154654741.702 6        -9.387          39.858  
C22  22580466.094 6 117582427.098 6      1369.794          40.564                                                                  
C07  38183372.892 6 198830857.378 6      1392.627          41.950    38183375.159 7 153748631.753 7      1076.927          44.238  
C13  36636782.025 7 190777302.553 7     -1423.715          44.977    36636789.965 7 147521128.222 7     -1100.992          43.760  
C19  22799010.304 7 118720384.116 7      -913.563          44.104                                                                  
> 2020 11 19 06 00 50.0000000  0 16                     
G23  20282705.320 8 106586317.877 8      -402.519          48.472                                                                    20282705.153 7  83054265.298 7      -313.654          47.730  
G20  20041455.701 7 105318540.525 7      -845.069          47.193    20041454.573 7  82066379.118 7      -658.499          43.375                                                                  
G25  21620308.802 7 113615500.203 7      2259.761          45.659                                                                    21620314.594 7  88531558.987 7      1760.851          45.004  
G12  22111339.800 6 116195851.719 6       278.471          39.558                                                                    22111336.636 5  90542217.025 5       216.979          33.362  
G10  20809284.883 8 109353527.287 8      1752.151          50.119                                                                    20809285.542 7  85210543.827 7      1365.311          45.608  
R10  19407912.723 7 103454735.174 7      1633.948          44.787                                                                  
R09  20336881.227 7 108597425.614 7     -2318.636          47.173    20336881.670 7  84464665.909 7     -1803.384          45.453  
R07  20526948.126 7 109881930.374 7       985.937          47.284    20526949.077 7  85463742.463 7       766.840          43.785  
C01  37496784.928 7 195255578.301 7        -1.189          43.984    37496789.594 7 150984003.184 7        -0.911          44.327  
C08  37981682.182 5 197780545.841 5     -1736.479          35.411    37981682.845 5 152936497.640 5     -1343.189          32.181  
C03  36338633.858 7 189224783.241 7       -30.677          46.091    36338632.873 7 146320593.968 7       -23.672          45.259  
C04  38408410.404 7 200002662.429 7       -12.721          42.055    38408412.474 6 154654751.334 6        -9.681          39.633  
C22  22580203.132 6 117581057.765 6      1369.114          40.290                                                                  
C07  38183105.523 7 198829465.029 7      1392.153          42.214    38183107.759 7 153747555.112 7      1076.383          44.104  
C13  36637055.525 7 190778726.716 7     -1424.355          45.042    36637063.455 7 147522229.465 7     -1101.374          43.715  
C19  22799185.823 7 118721298.102 7      -914.406          44.543                                                                  
> 2020 11 19 06 00 51.0000000  0 16                     
G23  20282781.948 8 106586720.536 8      -402.791          48.617                                                                    20282781.784 7  83054579.052 7      -313.867          47.791  
G20  20041616.570 7 105319385.922 7      -845.667          47.201    20041615.430 7  82067037.864 7      -658.965          43.432                                                                  
G25  21619878.795 7 113613240.519 7      2259.450          45.906                                                                    21619884.592 7  88529798.190 7      1760.608          45.315  
G12  22111286.715 6 116195573.218 6       278.155          39.432                                                                    22111283.644 5  90541999.987 5       216.731          32.799  
G10  20808951.481 8 109351775.265 8      1751.801          50.140                                                                    20808952.150 7  85209178.612 7      1365.038          45.677  
R10  19407606.279 7 103453101.593 7      1633.180          44.896                                                                  
R09  20337315.429 7 108599744.305 7     -2318.917          47.239    20337315.896 7  84466469.334 7     -1803.603          45.581  
R07  20526763.908 7 109880944.259 7       986.013          47.185    20526764.869 7  85462975.483 7       766.899          43.604  
C01  37496785.107 7 195255579.247 7        -1.054          43.883    37496789.780 7 150984003.933 7        -0.859          44.314  
C08  37982015.683 5 197782282.397 5     -1736.296          35.036    37982016.294 5 152937840.450 5     -1343.021          33.844  
C03  36338639.709 7 189224813.718 7       -30.582          46.056    36338638.730 7 146320617.542 7       -23.545          45.430  
C04  38408412.809 7 200002674.954 7       -12.420          42.452    38408414.871 6 154654761.032 6        -9.582          39.646  
C22  22579940.221 6 117579688.669 6      1368.845          40.533                                                                  
C07  38182838.156 7 198828072.758 7      1392.199          42.461    38182840.372 7 153746478.509 7      1076.656          44.055  
C13  36637329.058 7 190780151.053 7     -1424.481          45.146    36637336.983 7 147523330.861 7     -1101.477          43.730  
C19  22799361.428 7 118722212.409 7      -914.354          45.024                                                                  
> 2020 11 19 06 00 52.0000000  0 16                     
G23  20282858.711 8 106587123.905 8      -403.705          48.575                                                                    20282858.552 7  83054893.362 7      -314.579          47.683  
G20  20041777.586 7 105320232.043 7      -846.480          47.159    20041776.420 7  82067697.176 7      -659.598          43.617                                                                  
G25  21619448.886 7 113610981.397 7      2259.093          46.146                                                                    21619454.708 7  88528037.837 7      1760.331          45.322  
G12  22111233.795 6 116195295.471 6       277.340          39.792                                                                    22111230.810 5  90541783.538 5       216.093          32.878  
G10  20808618.189 8 109350023.800 8      1751.278          50.171                                                                    20808618.862 7  85207813.833 7      1364.630          45.627  
R10  19407300.003 7 103451468.995 7      1632.128          44.956                                                                  
R09  20337749.802 7 108602063.799 7     -2319.984          47.131    20337750.275 7  84468273.387 7     -1804.432          45.478  
R07  20526579.771 7 109879958.509 7       985.527          47.240    20526580.734 7  85462208.789 7       766.521          43.835  
C01  37496785.308 7 195255580.347 7        -1.199          44.059    37496789.980 7 150984004.758 7        -0.864          44.211  
C08  37982349.225 5 197784019.155 5     -1736.628          35.004    37982349.824 5 152939183.425 5     -1342.906          34.263  
C03  36338645.590 7 189224844.333 7       -30.656          46.065    36338644.616 7 146320641.208 7       -23.727          45.549  
C04  38408415.248 7 200002687.626 7       -12.585          42.131    38408417.301 6 154654770.822 6        -9.681          39.642  
C22  22579677.335 6 117578319.842 6      1369.031          40.007                                                                  
C07  38182570.836 7 198826680.633 7      1392.203          42.322    38182573.029 7 153745402.026 7      1076.455          44.065  
C13  36637602.646 7 190781575.672 7     -1424.658          45.088    36637610.557 7 147524432.449 7     -1101.544          43.671  
C19  22799537.123 7 118723127.196 7      -915.075          45.341                                                                  
> 2020 11 19 06 00 53.0000000  0 16                     
G23  20282935.609 8 106587527.926 8      -404.025          48.580                                                                    20282935.426 7  83055208.177 7      -314.829          47.653  
G20  20041938.737 7 105321078.886 7      -847.017          47.130    20041937.540 7  82068357.048 7      -660.017          43.681                                                                  
G25  21619019.080 7 113608722.823 7      2258.303          46.532                                                                    21619024.935 7  88526277.907 7      1759.715          45.573  
G12  22111181.005 6 116195018.439 6       276.810          40.056                                                                    22111177.958 5  90541567.645 5       215.679          32.961  
G10  20808284.998 8 109348272.892 8      1750.925          50.182                                                                    20808285.680 7  85206449.488 7      1364.356          45.567  
R10  19406993.902 7 103449837.339 7      1631.433          44.874                                                                  
R09  20338184.316 7 108604384.129 7     -2320.473          47.099    20338184.808 7  84470078.087 7     -1804.812          45.409  
R07  20526395.678 7 109878973.061 7       985.487          47.083    20526396.647 7  85461442.326 7       766.489          43.571  
C01  37496785.545 7 195255581.550 7        -1.164          43.958    37496790.202 7 150984005.684 7        -0.684          44.231  
C08  37982682.831 5 197785756.155 5     -1737.051          35.121    37982683.367 5 152940526.577 5     -1343.191          34.203  
C03  36338651.495 7 189224875.071 7       -30.596          46.033    36338650.524 7 146320664.973 7       -23.600          45.355  
C04  38408417.698 7 200002700.435 7       -12.954          42.271    38408419.774 6 154654780.710 6        -9.563          39.700  
C22  22579414.534 6 117576951.324 6      1368.766          40.280                                                                  
C07  38182303.559 7 198825288.667 7      1392.161          42.070    38182305.712 7 153744325.675 7      1076.625          44.133  
C13  36637876.277 7 190783000.530 7     -1424.602          45.308    36637884.187 7 147525534.254 7     -1101.787          43.876  
C19  22799712.902 7 118724042.369 7      -915.204          45.916                                                                  
> 2020 11 19 06 00 54.0000000  0 17                     
G23  20283012.549 8 106587932.228 8      -404.794          48.585                                                                    20283012.367 7  83055523.213 7      -315.428          47.387  
G18  23065369.103 5 121209331.07615     -3157.601          31.224                                                                                                                                  
G20  20042099.938 7 105321926.031 7      -847.537          46.917    20042098.725 7  82069017.157 7      -660.422          43.131                                                                  
G25  21618589.298 7 113606464.345 7      2258.148          46.582                                                                    21618595.173 7  88524518.052 7      1759.595          45.626  
G12  22111128.336 6 116194741.710 6       276.645          40.700                                                                    22111125.246 5  90541351.996 5       215.553          32.203  
G10  20807951.836 8 109346522.122 8      1750.364          50.158                                                                    20807952.529 7  85205085.252 7      1363.919          45.623  
R10  19406687.909 7 103448206.235 7      1630.497          44.902                                                                  
R09  20338618.914 7 108606704.820 7     -2321.155          47.117    20338619.412 7  84471883.073 7     -1805.342          45.378  
R07  20526211.566 7 109877987.515 7       985.336          47.067    20526212.540 7  85460675.788 7       766.371          43.672  
C01  37496785.718 7 195255582.459 7        -1.154          43.919    37496790.375 7 150984006.396 7        -0.790          44.202  
C08  37983016.371 5 197787492.935 5     -1737.226          34.835    37983016.873 5 152941869.519 5     -1343.283          34.768  
C03  36338657.346 7 189224905.508 7       -30.626          46.202    36338656.375 7 146320688.509 7       -23.600          45.352  
C04  38408420.101 7 200002712.913 7       -12.546          42.451    38408422.181 6 154654790.370 6        -9.666          39.841  
C22  22579151.691 6 117575582.704 6      1368.393          40.398                                                                  
C07  38182036.202 6 198823896.445 6      1392.078          41.951    38182038.344 7 153743249.118 7      1076.521          44.198  
C13  36638149.890 7 190784425.255 7     -1424.883          45.353    36638157.791 7 147526635.948 7     -1101.861          43.626  
C19  22799888.686 7 118724957.561 7      -915.586          46.139                                                                  
> 2020 11 19 06 00 55.0000000  0 17                     
G23  20283089.348 8 106588335.795 8      -403.667          48.659                                                                    20283089.164 7  83055837.678 7      -314.550          47.624  
G18  23065969.279 5 121212487.427 5     -3155.538          30.690                                                                                                                                  
G20  20042261.016 7 105322772.509 7      -846.584          47.051    20042259.793 7  82069676.748 7      -659.679          43.186                                                                  
G25  21618159.366 7 113604205.024 7      2259.466          46.799                                                                    21618165.237 7  88522757.543 7      1760.622          45.659  
G12  22111075.535 6 116194464.351 6       277.317          40.666                                                                    22111072.458 5  90541135.869 5       216.078          32.365  
G10  20807618.513 8 109344770.488 8      1751.677          50.184                                                                    20807619.218 7  85203720.345 7      1364.943          45.552  
R10  19406381.806 7 103446574.679 7      1631.347          44.980                                                                  
R09  20339053.414 7 108609024.929 7     -2320.191          47.078    20339053.911 7  84473687.608 7     -1804.590          45.334  
R07  20526027.255 7 109877000.901 7       986.821          47.096    20526028.233 7  85459908.422 7       767.527          43.523  
C01  37496785.648 7 195255582.118 7         0.556          44.084    37496790.317 7 150984006.132 7         0.475          44.318  
C08  37983349.686 5 197789228.514 5     -1735.651          35.130    37983350.146 5 152943211.601 5     -1341.856          35.064  
C03  36338662.962 7 189224934.681 7       -29.000          46.215    36338661.981 7 146320711.061 7       -22.324          45.311  
C04  38408422.266 7 200002724.140 7       -10.970          42.133    38408424.331 6 154654799.065 6        -8.573          39.674  
C22  22578888.646 6 117574212.961 6      1370.034          40.338                                                                  
C07  38181768.613 7 198822502.960 7      1393.542          42.440    38181770.727 7 153742171.591 7      1077.736          43.981  
C13  36638423.290 7 190785848.860 7     -1423.492          45.476    36638431.172 7 147527736.758 7     -1100.654          43.759  
C19  22800064.304 7 118725871.818 7      -914.322          46.838                                                                  
> 2020 11 19 06 00 56.0000000  0 16                     
G23  20283166.465 8 106588741.006 8      -406.190          48.631                                                                    20283166.281 7  83056153.425 7      -316.515          47.441  
G20  20042422.420 7 105323620.652 7      -849.066          47.001    20042421.167 7  82070337.636 7      -661.613          43.235                                                                  
G25  21617729.710 7 113601947.203 7      2256.832          47.055                                                                    21617735.591 7  88520998.203 7      1758.570          45.483  
G12  22111023.070 6 116194188.658 6       274.575          40.536                                                                    22111020.141 5  90540921.038 5       213.944          32.090  
G10  20807285.477 8 109343020.360 8      1749.261          50.196                                                                    20807286.187 7  85202356.611 7      1363.061          45.574  
R10  19406076.083 7 103444945.066 7      1628.575          45.077                                                                  
R09  20339488.238 7 108611346.827 7     -2322.862          47.257    20339488.747 7  84475493.535 7     -1806.667          45.338  
R07  20525843.205 7 109876015.644 7       984.521          47.105    20525844.176 7  85459142.112 7       765.738          43.392  
C01  37496785.788 7 195255582.845 7        -1.435          44.050    37496790.454 7 150984006.687 7        -1.063          44.310  
C08  37983683.217 5 197790965.202 5     -1737.455          35.514    37983683.635 5 152944554.555 5     -1343.452          35.400  
C03  36338668.767 7 189224964.919 7       -30.892          46.165    36338667.785 7 146320734.453 7       -24.000          45.474  
C04  38408424.633 7 200002736.431 7       -13.075          42.278    38408426.693 6 154654808.568 6       -10.017          39.894  
C22  22578625.849 6 117572844.465 6      1367.835          40.611                                                                  
C07  38181501.238 7 198821110.573 7      1391.706          42.640    38181503.335 7 153741094.898 7      1076.215          44.057  
C13  36638696.917 7 190787273.674 7     -1425.526          45.817    36638704.788 7 147528838.512 7     -1102.300          43.733  
C19  22800240.188 7 118726787.421 7      -916.364          47.116                                                                  
> 2020 11 19 06 00 57.0000000  0 16                     
G23  20283243.820 8 106589147.450 8      -406.791          48.561                                                                    20283243.620 7  83056470.132 7      -316.984          47.539  
G20  20042584.058 7 105324470.089 7      -849.679          47.023    20042582.792 7  82070999.529 7      -662.091          42.660                                                                  
G25  21617300.269 7 113599690.481 7      2256.483          47.097                                                                    21617306.147 7  88519239.721 7      1758.298          45.754  
G12  22110970.868 6 116193914.232 6       274.215          40.359                                                                    22110967.842 5  90540707.200 5       213.666          31.574  
G10  20806952.650 8 109341271.355 8      1748.850          50.221                                                                    20806953.377 7  85200993.750 7      1362.741          45.492  
R10  19405770.689 7 103443316.997 7      1627.754          45.258                                                                  
R09  20339923.319 7 108613670.117 7     -2323.569          47.421    20339923.840 7  84477300.541 7     -1807.218          45.471  
R07  20525659.331 7 109875031.332 7       984.267          47.241    20525660.298 7  85458376.536 7       765.541          43.510  
C01  37496786.045 7 195255584.235 7        -1.446          44.001    37496790.722 7 150984007.760 7        -0.918          44.233  
C08  37984016.901 5 197792702.664 5     -1737.598          35.339    37984017.255 5 152945898.077 5     -1343.603          35.653  
C03  36338674.704 7 189224995.839 7       -30.856          46.014    36338673.729 7 146320758.369 7       -23.968          45.318  
C04  38408427.129 7 200002749.411 7       -13.132          42.114    38408429.188 6 154654818.604 6       -10.137          40.023  
C22  22578363.212 6 117571476.840 6      1367.550          40.616                                                                  
C07  38181234.000 7 198819718.870 7      1391.774          42.537    38181236.083 7 153740018.761 7      1076.239          43.985  
C13  36638970.703 7 190788699.313 7     -1425.803          45.743    36638978.560 7 147529940.903 7     -1102.501          43.743  
C19  22800416.250 7 118727704.025 7      -916.692          47.447                                                                  
> 2020 11 19 06 00 58.0000000  0 16                     
G23  20283321.354 8 106589554.799 8      -407.733          48.672                                                                    20283321.136 7  83056787.543 7      -317.717          47.331  
G20  20042745.886 7 105325320.468 7      -850.975          47.112    20042744.599 7  82071662.160 7      -663.101          43.260                                                                  
G25  21616870.966 7 113597434.497 7      2255.707          47.273                                                                    21616876.843 7  88517481.811 7      1757.693          46.074  
G12  22110918.861 6 116193640.816 6       272.511          40.007                                                                    22110915.746 5  90540494.155 5       212.342          31.583  
G10  20806619.963 8 109339523.104 8      1748.012          50.208                                                                    20806620.689 7  85199631.476 7      1362.088          45.221  
R10  19405465.480 7 103441690.108 7      1626.358          45.306                                                                  
R09  20340358.597 7 108615994.420 7     -2324.654          47.566    20340359.121 7  84479108.336 7     -1808.061          45.390  
R07  20525475.569 7 109874047.594 7       983.582          47.080    20525476.532 7  85457611.407 7       765.008          43.641  
C01  37496786.386 7 195255585.978 7        -1.992          43.894    37496791.042 7 150984009.104 7        -1.433          44.211  
C08  37984350.646 5 197794440.580 5     -1738.010          35.009    37984350.978 6 152947241.931 6     -1344.155          36.265  
C03  36338680.708 7 189225027.100 7       -31.403          46.011    36338679.743 7 146320782.532 7       -24.220          45.428  
C04  38408429.682 7 200002762.710 7       -13.119          42.708    38408431.735 6 154654828.894 6       -10.445          39.790  
C22  22578100.668 6 117570109.705 6      1366.985          40.726                                                                  
C07  38180966.832 7 198818327.557 7      1391.434          42.728    38180968.897 7 153738942.920 7      1075.711          43.923  
C13  36639244.575 7 190790125.396 7     -1426.066          45.685    36639252.421 7 147531043.643 7     -1102.838          43.727  
C19  22800592.440 7 118728621.258 7      -917.473          47.830                                                                  
> 2020 11 19 06 00 59.0000000  0 16                     
G23  20283398.947 8 106589962.517 8      -407.635          48.712                                                                    20283398.719 7  83057105.243 7      -317.641          47.449  
G20  20042907.786 7 105326171.258 7      -850.711          47.232    20042906.474 7  82072325.108 7      -662.896          42.702                                                                  
G25  21616441.700 7 113595178.788 7      2255.758          47.269                                                                    21616447.597 7  88515724.112 7      1757.732          46.049  
G12  22110866.939 6 116193367.776 6       272.949          40.799                                                                    22110863.812 5  90540281.400 5       212.685          31.878  
G10  20806287.330 8 109337775.111 8      1748.075          50.291                                                                    20806288.064 7  85198269.406 7      1362.137          45.435  
R10  19405160.385 7 103440063.874 7      1626.099          45.293                                                                  
R09  20340793.963 7 108618319.235 7     -2324.908          47.378    20340794.499 7  84480916.527 7     -1808.258          45.817  
R07  20525291.809 7 109873063.844 7       984.013          46.968    20525292.753 7  85456846.264 7       765.342          43.586  
C01  37496786.692 7 195255587.539 7        -1.237          44.129    37496791.346 7 150984010.322 7        -0.935          44.507  
C08  37984684.372 5 197796178.352 5     -1737.703          34.787    37984684.706 6 152948585.723 6     -1343.706          36.267  
C03  36338686.679 7 189225058.194 7       -30.767          46.143    36338685.720 7 146320806.580 7       -23.834          45.609  
C04  38408432.196 7 200002775.840 7       -12.730          42.394    38408434.264 6 154654839.064 6       -10.052          40.125  
C22  22577838.137 6 117568742.598 6      1367.213          40.977                                                                  
C07  38180699.637 7 198816936.091 7      1392.061          42.622    38180701.675 7 153737866.960 7      1076.158          44.033  
C13  36639518.440 7 190791551.471 7     -1425.979          45.965    36639526.283 7 147532146.371 7     -1102.633          43.648  
C19  22800768.668 8 118729538.634 8      -917.219          48.152                                                                  
> 2020 11 19 06 01 00.0000000  0 16                     
G23  20283476.681 8 106590370.945 8      -408.944          48.757                                                                    20283476.430 7  83057423.498 7      -318.660          47.445  
G20  20043069.831 7 105327022.793 7      -852.164          47.305    20043068.476 7  82072988.640 7      -664.027          42.729                                                                  
G25  21616012.543 7 113592923.592 7      2254.752          47.545                                                                    21616018.445 7  88513966.817 7      1756.949          46.154  
G12  22110815.175 6 116193095.504 6       271.629          40.500                                                                    22110811.872 5  90540069.251 5       211.659          32.047  
G10  20805954.807 8 109336027.679 8      1746.994          50.163                                                                    20805955.538 7  85196907.780 7      1361.297          45.145  
R10  19404855.484 7 103438438.603 7      1624.397          45.357                                                                  
R09  20341229.496 7 108620644.887 7     -2326.273          47.509    20341230.040 7  84482725.372 7     -1809.320          45.925  
R07  20525108.100 7 109872080.448 7       983.128          47.242    20525109.037 7  85456081.396 7       764.653          43.832  
C01  37496787.013 7 195255589.247 7        -2.084          43.599    37496791.679 7 150984011.641 7        -1.596          44.538  
C08  37985018.111 5 197797916.337 5     -1738.234          34.799    37985018.456 6 152949929.667 6     -1344.012          36.405  
C03  36338692.674 7 189225089.411 7       -31.452          46.024    36338691.719 7 146320830.718 7       -24.412          45.660  
C04  38408434.731 7 200002789.083 7       -13.262          42.324    38408436.797 6 154654849.296 6       -10.500          39.981  
C22  22577575.655 6 117567375.776 6      1366.313          41.055                                                                  
C07  38180432.468 7 198815544.771 7      1391.133          42.832    38180434.475 7 153736791.099 7      1075.633          43.979  
C13  36639792.355 7 190792977.802 7     -1426.553          46.018    36639800.197 7 147533249.300 7     -1103.253          43.832  
C19  22800944.978 8 118730456.438 8      -918.196          48.262                                                                  
> 2020 11 19 06 01 01.0000000  0 18                     
G31  22936951.123 5 120534490.63815      2836.668          34.409                                                                                                                                  
G23  20283554.632 8 106590780.452 8      -409.826          48.726                                                                    20283554.351 7  83057742.590 7      -319.348          47.223  
G20  20043232.087 7 105327875.445 7      -852.819          47.347    20043230.713 7  82073653.042 7      -664.537          42.671                                                                  
G25  21615583.570 7 113590669.362 7      2254.157          47.655                                                                    21615589.467 7  88512210.274 7      1756.486          46.119  
G12  22110763.637 6 116192824.385 6       270.644          40.380                                                                    22110760.441 5  90539857.993 5       210.893          31.351  
G10  20805622.463 8 109334281.198 8      1746.406          50.140                                                                    20805623.192 7  85195546.883 7      1360.837          45.450  
G24  23332040.709 5 122610700.64215     -3266.566          34.308                                                                                                                                  
R10  19404550.846 7 103436814.707 7      1623.429          45.379                                                                  
R09  20341665.239 7 108622971.758 7     -2327.188          47.757    20341665.806 7  84484535.167 7     -1810.031          45.389  
R07  20524924.548 7 109871097.835 7       982.411          47.014    20524925.472 7  85455317.137 7       764.096          43.854  
C01  37496787.444 7 195255591.473 7        -2.151          43.819    37496792.096 7 150984013.358 7        -1.692          44.637  
C08  37985352.010 5 197799654.997 5     -1738.853          34.083    37985352.330 6 152951274.091 6     -1344.644          36.393  
C03  36338698.766 7 189225121.153 7       -31.703          45.984    36338697.819 7 146320855.274 7       -24.632          45.762  
C04  38408437.381 7 200002802.899 7       -13.879          42.291    38408439.442 6 154654859.964 6       -10.798          39.971  
C22  22577313.313 6 117566009.655 6      1366.102          40.827                                                                  
C07  38180165.417 7 198814154.029 7      1390.879          42.852    38180167.390 7 153735715.667 7      1075.457          43.853  
C13  36640066.407 7 190794404.839 7     -1427.103          46.219    36640074.233 7 147534352.771 7     -1103.484          43.947  
C19  22801121.448 8 118731375.083 8      -918.785          48.466                                                                  
> 2020 11 19 06 01 02.0000000  0 17                     
G31  22936405.140 5 120531652.049 5      2839.267          35.252                                                                                                                                  
G23  20283632.427 8 106591189.201 8      -407.389          48.624                                                                    20283632.130 7  83058061.092 7      -317.449          47.150  
G20  20043394.218 7 105328727.400 7      -850.726          47.389    20043392.811 7  82074316.900 7      -662.906          42.776                                                                  
G25  21615154.422 7 113588414.246 7      2256.458          47.804                                                                    21615160.339 7  88510453.044 7      1758.280          46.192  
G12  22110711.934 6 116192552.543 6       272.978          40.548                                                                    22110708.668 5  90539646.176 5       212.713          31.642  
G10  20805289.947 8 109332533.847 8      1748.667          50.063                                                                    20805290.682 7  85194185.308 7      1362.598          45.429  
R10  19404246.111 7 103435190.289 7      1625.671          45.597                                                                  
R09  20342100.861 7 108625297.983 7     -2325.104          47.855    20342101.448 7  84486344.458 7     -1808.410          45.450  
R07  20524740.784 7 109870114.117 7       985.177          47.188    20524741.703 7  85454552.028 7       766.249          43.851  
C01  37496787.630 7 195255592.414 7         0.468          43.783    37496792.279 7 150984014.087 7         0.350          44.560  
C08  37985685.665 5 197801392.385 5     -1735.894          34.296    37985685.965 6 152952617.527 6     -1341.952          37.527  
C03  36338704.613 7 189225151.605 7       -28.993          46.223    36338703.663 7 146320878.803 7       -22.329          45.569  
C04  38408439.772 7 200002815.382 7       -10.982          42.617    38408441.845 6 154654869.633 6        -8.474          39.945  
C22  22577050.751 6 117564642.382 6      1368.931          40.667                                                                  
C07  38179898.113 7 198812761.998 7      1393.559          42.460    38179900.062 7 153734639.271 7      1077.537          43.746  
C13  36640340.226 7 190795830.669 7     -1424.354          46.293    36640348.052 7 147535455.309 7     -1101.419          43.808  
C19  22801297.724 8 118732292.711 8      -916.228          48.772                                                                  
> 2020 11 19 06 01 03.0000000  0 17                     
G31  22935867.746 5 120528813.018 5      2839.158          34.603                                                                                                                                  
G23  20283710.088 8 106591597.214 8      -408.195          48.744                                                                    20283709.766 7  83058379.020 7      -318.077          47.221  
G20  20043556.212 7 105329578.658 7      -851.590          47.589    20043554.774 7  82074980.216 7      -663.579          42.882                                                                  
G25  21614725.117 7 113586158.250 7      2255.885          47.745                                                                    21614731.048 7  88508695.131 7      1757.835          46.266  
G12  22110660.110 6 116192280.019 6       272.310          40.658                                                                    22110656.836 5  90539433.830 5       212.195          30.855  
G10  20804957.263 8 109330785.615 8      1748.120          50.117                                                                    20804958.013 7  85192823.049 7      1362.172          45.480  
R10  19403941.291 7 103433565.415 7      1624.498          45.651                                                                  
R09  20342536.366 8 108627623.579 8     -2325.879          48.132    20342536.960 7  84488153.257 7     -1809.013          45.616  
R07  20524556.819 7 109869129.326 7       984.874          47.206    20524557.727 7  85453786.081 7       766.013          44.044  
C01  37496787.548 7 195255592.048 7         0.211          44.083    37496792.210 7 150984013.803 7         0.332          44.703  
C08  37986019.080 5 197803128.539 5     -1735.696          33.888    37986019.394 6 152953960.102 6     -1342.739          37.336  
C03  36338710.207 7 189225180.768 7       -29.145          46.152    36338709.261 7 146320901.352 7       -22.485          45.275  
C04  38408441.933 7 200002826.619 7       -11.086          42.670    38408443.996 6 154654878.285 6        -8.415          39.945  
C22  22576787.966 6 117563274.041 6      1368.194          40.996                                                                  
C07  38179630.569 7 198811368.715 7      1393.294          42.259    38179632.483 7 153733561.880 7      1077.483          43.734  
C13  36640613.838 7 190797255.390 7     -1424.668          46.604    36640621.657 7 147536556.990 7     -1101.647          43.986  
C19  22801473.812 8 118733209.385 8      -916.756          48.905                                                                  
> 2020 11 19 06 01 04.0000000  0 17                     
G31  22935327.504 5 120525973.140 5      2841.194          34.370                                                                                                                                  
G23  20283787.613 8 106592004.520 8      -406.403          48.990                                                                    20283787.273 7  83058696.398 7      -316.681          47.257  
G20  20043718.075 7 105330429.241 7      -849.854          47.552    20043716.602 7  82075643.004 7      -662.227          42.602                                                                  
G25  21614295.639 7 113583901.391 7      2257.886          47.579                                                                    21614301.580 7  88506936.545 7      1759.394          46.240  
G12  22110608.209 6 116192006.865 6       274.255          40.829                                                                    22110604.801 5  90539220.998 5       213.712          30.618  
G10  20804624.428 8 109329036.552 8      1750.027          50.244                                                                    20804625.181 7  85191460.143 7      1363.658          45.831  
R10  19403636.379 7 103431940.068 7      1626.095          45.757                                                                  
R09  20342971.773 8 108629948.607 8     -2324.303          48.479    20342972.373 7  84489961.613 7     -1807.789          45.306  
R07  20524372.650 7 109868143.452 7       986.928          46.990    20524373.557 7  85453019.292 7       767.611          43.804  
C01  37496787.237 7 195255590.436 7         2.834          43.768    37496791.899 7 150984012.560 7         2.175          44.630  
C08  37986352.280 5 197804863.588 5     -1733.925          35.323    37986352.555 6 152955301.709 6     -1340.642          37.520  
C03  36338715.556 7 189225208.672 7       -26.873          46.062    36338714.620 7 146320922.922 7       -20.562          45.657  
C04  38408443.849 7 200002836.579 7        -8.943          42.658    38408445.927 6 154654885.995 6        -6.660          39.860  
C22  22576524.967 6 117561904.610 6      1370.329          40.645                                                                  
C07  38179362.782 7 198809974.185 7      1395.704          42.119    38179364.693 7 153732483.560 7      1079.220          43.371  
C13  36640887.228 7 190798678.982 7     -1422.578          46.550    36640895.043 7 147537657.807 7     -1100.040          43.919  
C19  22801649.709 8 118734125.092 8      -914.705          48.905                                                                  
> 2020 11 19 06 01 05.0000000  0 18                     
G31  22934785.271 5 120523132.404 5      2840.465          34.655                                                                                                                                  
G23  20283865.037 8 106592411.266 8      -407.394          48.961                                                                    20283864.665 7  83059013.337 7      -317.454          47.235  
G20  20043879.841 7 105331279.291 7      -850.746          47.782    20043878.322 7  82076305.372 7      -662.924          42.931                                                                  
G25  21613866.029 7 113581643.847 7      2257.041          47.665                                                                    21613871.981 7  88505177.423 7      1758.736          46.151  
G12  22110556.166 6 116191733.171 6       273.155          41.310                                                                    22110552.683 4  90539007.737 4       212.856          29.716  
G10  20804291.456 8 109327286.788 8      1749.271          50.066                                                                    20804292.205 7  85190096.691 7      1363.068          45.631  
G24  23334518.536 6 122623721.27916     -3261.536          37.069                                                                                                                                  
R10  19403331.423 7 103430314.422 7      1624.903          45.589                                                                  
R09  20343407.072 8 108632273.155 8     -2325.200          48.448    20343407.691 7  84491769.591 7     -1808.488          45.383  
R07  20524188.301 7 109867156.616 7       986.363          47.145    20524189.207 7  85452251.756 7       767.172          43.883  
C01  37496786.713 7 195255587.718 7         2.274          44.044    37496791.381 7 150984010.452 7         1.881          44.544  
C08  37986685.285 5 197806597.571 5     -1734.342          33.899    37986685.521 6 152956642.519 6     -1340.741          37.605  
C03  36338720.703 7 189225235.463 7       -27.271          46.090    36338719.770 7 146320943.639 7       -20.952          45.638  
C04  38408445.539 7 200002845.404 7        -9.015          42.477    38408447.604 6 154654892.863 6        -7.185          39.593  
C22  22576261.795 6 117560534.230 6      1369.744          40.733                                                                  
C07  38179094.778 7 198808578.570 7      1395.421          42.427    38179096.675 7 153731404.357 7      1079.123          43.368  
C13  36641160.426 7 190800101.585 7     -1423.013          46.675    36641168.233 7 147538757.843 7     -1100.447          43.692  
C19  22801825.459 8 118735039.991 8      -915.393          49.035                                                                  
> 2020 11 19 06 01 06.0000000  0 18                     
G31  22934244.124 5 120520292.892 5      2838.505          34.253                                                                                                                                  
G23  20283942.712 8 106592819.383 8      -409.474          48.913                                                                    20283942.322 7  83059331.343 7      -319.076          47.131  
G18  23072618.138 5 121247419.068 5     -3156.865          35.231                                                                                                                                  
G20  20044041.890 7 105332130.781 7      -852.882          47.749    20044040.338 7  82076968.867 7      -664.587          42.720                                                                  
G25  21613436.663 7 113579387.528 7      2255.141          47.796                                                                    21613442.625 7  88503419.255 7      1757.255          46.248  
G12  22110504.404 6 116191460.942 6       270.837          41.231                                                                    22110500.876 5  90538795.624 5       211.052          30.661  
G10  20803958.722 8 109325538.270 8      1747.421          50.141                                                                    20803959.470 7  85188734.208 7      1361.626          45.637  
R10  19403026.772 7 103428690.466 7      1622.492          45.605                                                                  
R09  20343842.675 8 108634599.228 8     -2327.528          48.591    20343843.289 7  84493578.755 7     -1810.299          45.578  
R07  20524004.156 7 109866170.847 7       984.644          47.325    20524005.040 7  85451485.046 7       765.834          44.227  
C01  37496786.348 7 195255585.798 7         1.029          43.810    37496791.013 7 150984008.980 7         0.717          44.324  
C08  37987018.457 5 197808332.450 5     -1735.891          34.294    37987018.695 6 152957984.054 6     -1342.157          38.240  
C03  36338725.999 7 189225263.055 7       -28.464          46.265    36338725.073 7 146320965.001 7       -22.084          45.317  
C04  38408447.406 7 200002855.096 7       -10.902          42.594    38408449.459 6 154654900.316 6        -8.152          39.776  
C22  22575998.831 6 117559164.821 6      1368.567          40.678                                                                  
C07  38178826.917 7 198807183.772 7      1393.873          42.295    38178828.813 7 153730325.827 7      1077.725          43.261  
C13  36641433.815 7 190801525.164 7     -1424.550          46.590    36641441.616 7 147539858.643 7     -1101.580          43.695  
C19  22802001.420 8 118735956.016 8      -917.211          49.100                                                                  
> 2020 11 19 06 01 07.0000000  0 18                     
G31  22933703.482 5 120517455.757 5      2835.966          33.846                                                                                                                                  
G23  20284020.869 8 106593230.022 8      -411.633          48.899                                                                    20284020.463 7  83059651.315 7      -320.758          46.989  
G18  23073216.839 6 121250577.103 6     -3159.116          36.092                                                                                                                                  
G20  20044204.421 7 105332984.831 7      -855.095          47.744    20044202.836 7  82077634.356 7      -666.312          42.810                                                                  
G25  21613007.749 7 113577133.610 7      2253.000          47.547                                                                    21613013.711 7  88501662.960 7      1755.587          46.097  
G12  22110453.156 6 116191191.310 6       268.658          41.032                                                                    22110449.545 5  90538585.544 5       209.356          30.057  
G10  20803626.444 8 109323792.157 8      1745.205          50.115                                                                    20803627.195 7  85187373.602 7      1359.901          45.761  
R10  19402722.640 7 103427069.354 7      1619.876          45.343                                                                  
R09  20344278.787 8 108636928.009 8     -2329.935          48.578    20344279.392 7  84495390.030 7     -1812.171          45.270  
R07  20523820.441 7 109865187.318 7       982.739          47.155    20523821.302 7  85450720.078 7       764.353          44.084  
C01  37496786.364 7 195255585.861 7        -0.662          43.949    37496791.027 7 150984009.019 7        -0.511          44.424  
C08  37987351.991 5 197810069.316 5     -1737.843          34.672    37987352.233 6 152959327.147 6     -1343.698          37.760  
C03  36338731.682 7 189225292.626 7       -30.295          45.961    36338730.746 7 146320987.853 7       -23.415          45.336  
C04  38408449.649 7 200002866.693 7       -12.088          42.254    38408451.702 6 154654909.321 6        -9.509          39.890  
C22  22575736.270 6 117557797.581 6      1366.363          40.823                                                                  
C07  38178559.465 7 198805790.980 7      1392.051          42.449    38178561.340 7 153729248.836 7      1076.386          43.280  
C13  36641707.614 7 190802950.832 7     -1426.330          46.887    36641715.397 7 147540961.052 7     -1102.873          43.783  
C19  22802177.809 8 118736874.304 8      -919.109          49.009                                                                  
> 2020 11 19 06 01 08.0000000  0 19                     
G31  22933163.646 5 120514619.828 5      2836.636          34.130    22933155.538 5  93907475.761 5      2210.366          32.055                                                                  
G23  20284099.319 8 106593642.187 8      -411.500          48.935                                                                    20284098.895 7  83059972.477 7      -320.654          47.167  
G18  23073817.129 6 121253736.087 6     -3158.573          36.867                                                                                                                                  
G20  20044367.246 7 105333840.440 7      -855.075          47.770    20044365.621 7  82078301.059 7      -666.296          42.672                                                                  
G25  21612579.087 7 113574881.085 7      2253.000          47.376                                                                    21612585.073 7  88499907.751 7      1755.588          46.018  
G12  22110402.205 6 116190923.219 6       268.652          41.190                                                                    22110398.426 4  90538376.656 4       209.352          29.693  
G10  20803294.434 8 109322047.444 8      1745.486          49.983                                                                    20803295.195 7  85186014.087 7      1360.120          45.227  
G24  23336418.975 6 122633691.603 6     -3264.288          37.677                                                                                                                                  
R10  19402418.866 7 103425450.015 7      1619.946          45.316                                                                  
R09  20344715.191 8 108639258.429 8     -2329.798          48.381    20344715.792 7  84497202.576 7     -1812.065          45.464  
R07  20523636.946 7 109864205.015 7       983.075          47.174    20523637.788 7  85449956.066 7       764.615          44.157  
C01  37496786.561 7 195255586.864 7        -0.160          43.563    37496791.225 7 150984009.803 7        -0.135          44.413  
C08  37987685.717 5 197811807.255 5     -1736.541          34.629    37987685.982 6 152960671.043 6     -1343.200          38.360  
C03  36338737.548 7 189225323.137 7       -29.647          46.282    36338736.620 7 146321011.456 7       -22.984          45.421  
C04  38408452.062 7 200002879.267 7       -11.793          42.450    38408454.125 6 154654919.034 6        -9.010          40.099  
C22  22575473.907 6 117556431.424 6      1366.962          41.029                                                                  
C07  38178292.190 7 198804399.161 7      1392.808          42.191    38178294.049 7 153728172.589 7      1076.917          43.057  
C13  36641981.609 7 190804377.573 7     -1425.865          46.744    36641989.394 7 147542064.303 7     -1102.768          43.379  
C19  22802354.436 8 118737793.834 8      -918.835          49.151                                                                  
> 2020 11 19 06 01 09.0000000  0 19                     
G31  22932624.555 5 120511783.189 5      2835.326          33.233                                                                                                                                  
G23  20284177.657 8 106594053.772 8      -412.797          49.043                                                                    20284177.225 7  83060293.188 7      -321.665          47.027  
G18  23074416.413 6 121256893.975 6     -3159.003          37.602                                                                                                                                  
G20  20044529.975 7 105334695.517 7      -856.373          47.896    20044528.323 7  82078967.349 7      -667.308          42.141                                                                  
G25  21612150.300 7 113572627.822 7      2252.068          47.291                                                                    21612156.290 7  88498151.962 7      1754.862          46.107  
G12  22110351.186 6 116190654.611 6       267.446          40.385                                                                    22110347.262 4  90538167.369 4       208.414          28.899  
G10  20802962.286 8 109320302.012 8      1744.235          50.116                                                                    20802963.049 7  85184654.009 7      1359.145          45.778  
G24  23337043.613 6 122636955.361 6     -3265.504          39.023                                                                                                                                  
R10  19402115.034 7 103423830.390 7      1618.250          45.218                                                                  
R09  20345151.511 8 108641588.390 8     -2331.220          48.491    20345152.111 7  84499014.765 7     -1813.172          45.249  
R07  20523453.277 7 109863221.760 7       982.218          47.148    20523454.096 7  85449191.311 7       763.948          43.965  
C01  37496786.540 7 195255586.762 7        -0.884          43.921    37496791.202 7 150984009.713 7        -0.625          44.169  
C08  37988019.285 5 197813544.191 5     -1738.354          34.212    37988019.516 6 152962014.136 6     -1343.861          38.000  
C03  36338743.196 7 189225352.531 7       -30.378          46.228    36338742.266 7 146321034.168 7       -23.460          45.416  
C04  38408454.265 7 200002890.719 7       -12.427          42.358    38408456.313 6 154654927.876 6        -9.659          39.943  
C22  22575211.367 6 117555064.332 6      1366.196          41.351                                                                  
C07  38178024.715 7 198803006.264 7      1392.058          42.305    38178026.540 7 153727095.507 7      1076.450          43.067  
C13  36642255.419 7 190805803.356 7     -1426.812          46.994    36642263.192 7 147543166.799 7     -1103.295          43.639  
C19  22802530.908 8 118738712.552 8      -919.748          49.101                                                                  
> 2020 11 19 06 01 10.0000000  0 19                     
G31  22932085.936 5 120508947.982 5      2835.498          32.680                                                                                                                                  
G23  20284256.302 8 106594466.995 8      -413.498          49.004                                                                    20284255.859 7  83060615.172 7      -322.212          47.226  
G18  23075014.140 6 121260053.041 6     -3159.076          37.809                                                                                                                                  
G20  20044693.028 7 105335552.258 7      -857.065          47.832    20044691.330 7  82079634.931 7      -667.848          42.272                                                                  
G25  21611721.804 7 113570376.073 7      2251.340          47.153                                                                    21611727.804 7  88496397.357 7      1754.294          45.938  
G12  22110300.448 6 116190387.703 6       266.745          40.352                                                                    22110296.428 4  90537959.408 4       207.869          28.180  
G10  20802630.420 8 109318558.085 8      1743.691          50.098                                                                    20802631.180 7  85183295.105 7      1358.720          45.401  
G24  23337665.871 6 122640220.109 6     -3265.582          38.312                                                                                                                                  
R10  19401811.552 7 103422212.668 7      1617.404          45.275                                                                  
R09  20345588.169 8 108643920.144 8     -2332.111          48.402    20345588.755 7  84500828.348 7     -1813.866          45.316  
R07  20523269.856 7 109862239.825 7       981.848          47.165    20523270.648 7  85448427.584 7       763.660          44.194  
C01  37496786.720 7 195255587.699 7        -0.907          43.676    37496791.392 7 150984010.453 7        -0.864          44.506  
C08  37988353.055 5 197815282.233 5     -1738.329          34.169    37988353.276 6 152963358.081 6     -1343.923          38.618  
C03  36338749.050 7 189225382.982 7       -30.420          46.219    36338748.120 7 146321057.723 7       -23.527          45.468  
C04  38408456.669 7 200002903.217 7       -12.568          42.600    38408458.717 6 154654937.542 6        -9.673          39.828  
C22  22574949.078 6 117553698.496 6      1365.643          41.539                                                                  
C07  38177757.443 7 198801614.435 7      1391.771          42.460    38177759.255 7 153726019.260 7      1076.118          42.967  
C13  36642529.458 7 190807230.342 7     -1426.935          46.853    36642537.222 7 147544270.240 7     -1103.595          43.395  
C19  22802707.637 8 118739632.636 8      -920.277          49.042                                                                  
> 2020 11 19 06 01 11.0000000  0 19                     
G31  22931546.854 5 120506112.807 5      2835.731          30.600                                                                                                                                  
G23  20284334.978 8 106594880.374 8      -413.146          48.966                                                                    20284334.531 7  83060937.279 7      -321.938          47.166  
G18  23075612.667 6 121263211.727 6     -3157.597          37.438                                                                                                                                  
G20  20044856.114 7 105336409.210 7      -856.586          47.827    20044854.394 7  82080302.682 7      -667.474          42.673                                                                  
G25  21611293.298 7 113568124.346 7      2252.038          46.942                                                                    21611299.309 7  88494642.766 7      1754.838          45.805  
G12  22110249.776 6 116190121.027 6       267.108          40.036                                                                    22110245.565 4  90537751.633 4       208.153          28.717  
G10  20802298.570 8 109316814.194 8      1744.239          50.120                                                                    20802299.332 7  85181936.229 7      1359.147          45.731  
G24  23338288.787 6 122643484.524 6     -3263.672          39.291                                                                                                                                  
R10  19401508.144 7 103420595.402 7      1617.319          44.995                                                                  
R09  20346024.885 8 108646252.190 8     -2331.910          48.325    20346025.454 7  84502642.161 7     -1813.709          44.999  
R07  20523086.400 7 109861257.707 7       982.573          47.080    20523087.165 7  85447663.714 7       764.223          44.081  
C01  37496786.823 7 195255588.259 7         0.012          44.136    37496791.507 7 150984010.877 7         0.020          44.330  
C08  37988686.758 5 197817019.914 5     -1736.847          34.884    37988686.982 6 152964701.817 6     -1343.131          38.173  
C03  36338754.827 7 189225413.043 7       -29.401          46.157    36338753.888 7 146321080.972 7       -22.923          45.572  
C04  38408459.002 7 200002915.357 7       -11.914          42.346    38408461.063 6 154654946.939 6        -8.915          39.915  
C22  22574686.739 6 117552332.412 6      1366.644          41.179                                                                  
C07  38177490.103 7 198800222.223 7      1392.886          42.308    38177491.890 7 153724942.723 7      1076.993          43.045  
C13  36642803.451 7 190808657.061 7     -1426.156          46.910    36642811.201 7 147545373.458 7     -1102.867          43.567  
C19  22802884.345 8 118740552.634 8      -919.493          48.962                                                                  
> 2020 11 19 06 01 12.0000000  0 18                     
G23  20284413.749 8 106595294.269 8      -415.955          48.899                                                                    20284413.284 7  83061259.789 7      -324.126          47.247  
G18  23076211.086 6 121266370.517 6     -3160.582          37.825                                                                                                                                  
G20  20045019.303 7 105337266.727 7      -859.439          47.780    20045017.564 7  82080970.869 7      -669.698          42.238                                                                  
G25  21610864.865 7 113565872.977 7      2249.543          46.817                                                                    21610870.870 7  88492888.454 7      1752.894          45.658  
G12  22110199.202 6 116189854.929 6       264.019          40.099                                                                    22110194.941 4  90537544.299 4       205.746          28.125  
G10  20801966.790 8 109315070.690 8      1741.465          50.002                                                                    20801967.559 7  85180577.655 7      1356.986          45.614  
G24  23338909.514 6 122646748.932 6     -3266.020          38.601                                                                                                                                  
R10  19401204.884 7 103418978.929 7      1614.273          45.272                                                                  
R09  20346461.727 8 108648584.859 8     -2334.710          48.120    20346462.261 7  84504456.456 7     -1815.887          45.079  
R07  20522902.975 7 109860275.794 7       980.047          47.336    20522903.721 7  85446900.005 7       762.259          44.256  
C01  37496786.927 7 195255588.782 7        -2.179          43.991    37496791.603 7 150984011.279 7        -1.668          44.258  
C08  37989020.482 5 197818757.699 5     -1739.146          34.287    37989020.688 6 152966045.570 6     -1344.992          38.626  
C03  36338760.594 7 189225443.062 7       -31.500          46.344    36338759.650 7 146321104.173 7       -24.419          45.387  
C04  38408461.310 7 200002927.401 7       -13.697          42.569    38408463.365 6 154654956.256 6       -10.485          39.652  
C22  22574424.430 6 117550966.494 6      1364.211          41.622                                                                  
C07  38177222.763 7 198798830.034 7      1390.374          42.307    38177224.521 7 153723866.189 7      1075.164          43.086  
C13  36643077.458 7 190810083.887 7     -1428.535          46.861    36643085.210 7 147546476.752 7     -1104.488          43.427  
C19  22803061.102 8 118741472.889 8      -922.073          49.005                                                                  
> 2020 11 19 06 01 13.0000000  0 18                     
G23  20284493.179 8 106595711.567 8      -417.813          48.867                                                                    20284492.695 7  83061584.948 7      -325.575          47.219  
G18  23076810.754 6 121269532.144 6     -3162.201          37.425                                                                                                                                  
G20  20045183.148 7 105338127.677 7      -861.475          47.790    20045181.390 7  82081641.733 7      -671.285          42.300                                                                  
G25  21610437.049 7 113563624.889 7      2247.639          46.631                                                                    21610443.069 7  88491136.697 7      1751.409          45.594  
G12  22110149.267 6 116189592.280 6       262.035          39.332                                                                    22110144.826 4  90537339.662 4       204.201          28.773  
G10  20801635.635 8 109313330.460 8      1739.777          50.098                                                                    20801636.408 7  85179221.630 7      1355.670          45.658  
G24  23339531.578 6 122650015.708 6     -3267.788          38.888                                                                                                                                  
R10  19400902.327 7 103417366.189 7      1611.987          45.324                                                                  
R09  20346899.232 8 108650921.109 8     -2336.824          48.161    20346899.734 7  84506273.537 7     -1817.532          44.948  
R07  20522720.153 7 109859297.014 7       978.390          47.285    20522720.856 7  85446138.728 7       760.969          44.205  
C01  37496787.562 7 195255592.120 7        -3.612          43.968    37496792.233 7 150984013.848 7        -2.690          44.367  
C08  37989354.744 5 197820498.421 5     -1740.533          34.392    37989354.957 6 152967391.576 6     -1346.200          38.408  
C03  36338766.910 7 189225475.926 7       -33.172          46.283    36338765.968 7 146321129.571 7       -25.561          45.435  
C04  38408464.167 7 200002942.306 7       -15.238          42.639    38408466.221 6 154654967.761 6       -11.803          39.953  
C22  22574162.690 6 117549603.544 6      1362.675          41.265                                                                  
C07  38176955.970 7 198797440.667 7      1389.087          42.587    38176957.704 7 153722791.842 7      1074.053          43.071  
C13  36643352.037 7 190811513.649 7     -1430.133          46.813    36643359.781 7 147547582.340 7     -1105.921          43.574  
C19  22803238.452 8 118742396.283 8      -923.751          48.820                                                                  
> 2020 11 19 06 01 14.0000000  0 18                     
G23  20284572.723 8 106596129.543 8      -418.205          48.743                                                                    20284572.240 7  83061910.637 7      -325.880          47.198  
G18  23077410.248 6 121272693.948 6     -3161.671          36.557                                                                                                                                  
G20  20045347.128 7 105338989.359 7      -861.836          47.801    20045345.349 7  82082313.165 7      -671.566          42.729                                                                  
G25  21610009.344 7 113561377.354 7      2247.230          46.632                                                                    21610015.367 7  88489385.370 7      1751.090          45.462  
G12  22110099.467 6 116189330.375 6       261.962          38.908                                                                    22110094.844 4  90537135.591 4       204.142          28.770  
G10  20801304.579 8 109311590.773 8      1739.626          50.045                                                                    20801305.364 7  85177866.028 7      1355.552          45.469  
G24  23340152.983 6 122653283.172 6     -3267.386          38.791                                                                                                                                  
R10  19400599.946 7 103415754.387 7      1611.600          45.211                                                                  
R09  20347336.877 8 108653258.171 8     -2337.354          48.107    20347337.365 7  84508091.247 7     -1817.944          44.940  
R07  20522537.378 7 109858318.561 7       978.464          47.315    20522538.053 7  85445377.708 7       761.027          44.205  
C01  37496788.226 7 195255595.578 7        -3.347          44.030    37496792.903 7 150984016.540 7        -2.570          44.372  
C08  37989689.090 5 197822239.289 5     -1740.914          34.361    37989689.250 6 152968737.741 6     -1346.076          38.798  
C03  36338773.237 7 189225508.877 7       -32.813          46.352    36338772.296 7 146321155.054 7       -25.378          45.416  
C04  38408467.051 7 200002957.340 7       -15.336          42.660    38408469.102 6 154654979.389 6       -11.675          39.793  
C22  22573901.008 6 117548240.896 6      1362.806          41.565                                                                  
C07  38176689.194 7 198796051.440 7      1389.424          42.443    38176690.915 7 153721717.618 7      1074.137          43.111  
C13  36643626.667 7 190812943.716 7     -1430.001          46.779    36643634.408 7 147548688.150 7     -1105.760          43.348  
C19  22803415.883 8 118743320.088 8      -923.951          48.842                                                                  
> 2020 11 19 06 01 15.0000000  0 18                     
G23  20284652.351 8 106596547.939 8      -418.614          48.487                                                                    20284651.860 7  83062236.655 7      -326.199          47.372  
G18  23078009.843 6 121275855.665 6     -3161.413          37.036                                                                                                                                  
G20  20045511.203 7 105339851.504 7      -862.411          47.735    20045509.410 7  82082984.963 7      -672.014          42.347                                                                  
G25  21609581.691 7 113559130.075 7      2247.266          46.403                                                                    21609587.711 7  88487634.246 7      1751.118          45.313  
G12  22110049.721 6 116189068.949 6       261.541          37.645                                                                    22110045.154 4  90536931.903 4       203.815          27.914  
G10  20800973.583 8 109309851.379 8      1739.286          50.023                                                                    20800974.367 7  85176510.655 7      1355.287          45.692  
G24  23340774.712 6 122656550.519 6     -3267.267          38.161                                                                                                                                  
R10  19400297.693 7 103414143.311 7      1610.911          45.269                                                                  
R09  20347774.625 7 108655595.782 7     -2337.876          47.931    20347775.091 7  84509909.389 7     -1818.350          44.896  
R07  20522354.614 7 109857340.172 7       978.396          47.365    20522355.259 7  85444616.738 7       760.974          44.277  
C01  37496788.867 7 195255598.912 7        -3.266          43.930    37496793.541 7 150984019.093 7        -2.288          44.362  
C08  37990023.393 5 197823980.065 5     -1740.761          34.824    37990023.557 6 152970083.863 6     -1345.972          38.738  
C03  36338779.534 7 189225541.693 7       -32.550          46.331    36338778.592 7 146321180.430 7       -25.168          45.546  
C04  38408469.910 7 200002972.203 7       -14.764          42.718    38408471.959 6 154654990.889 6       -11.485          40.035  
C22  22573639.339 6 117546878.265 6      1362.784          41.639                                                                  
C07  38176422.421 7 198794662.126 7      1389.539          42.538    38176424.103 7 153720643.297 7      1074.408          43.074  
C13  36643901.297 7 190814373.769 7     -1430.002          46.752    36643909.034 7 147549793.951 7     -1105.688          43.545  
C19  22803593.344 8 118744244.069 8      -923.966          48.707                                                                  
> 2020 11 19 06 01 16.0000000  0 18                     
G23  20284731.993 8 106596966.420 8      -418.463          48.612                                                                    20284731.489 7  83062562.738 7      -326.081          47.248  
G18  23078609.560 5 121279017.000 5     -3160.830          35.944                                                                                                                                  
G20  20045675.307 7 105340713.778 7      -862.412          47.787    20045673.497 6  82083656.860 6      -672.015          41.812                                                                  
G25  21609154.036 7 113556882.758 7      2247.378          46.430                                                                    21609160.057 7  88485883.092 7      1751.206          45.329  
G12  22109999.945 6 116188807.686 6       261.321          37.014                                                                    22109995.515 4  90536728.335 4       203.644          28.929  
G10  20800642.581 8 109308111.953 8      1739.427          50.139                                                                    20800643.383 7  85175155.258 7      1355.398          45.718  
G24  23341396.356 6 122659817.418 6     -3266.457          38.192                                                                                                                                  
R10  19399995.519 7 103412532.608 7      1610.537          45.139                                                                  
R09  20348212.413 7 108657933.586 7     -2337.799          47.827    20348212.857 7  84511727.680 7     -1818.290          44.863  
R07  20522171.803 7 109856361.538 7       978.820          47.271    20522172.416 7  85443855.580 7       761.305          44.442  
C01  37496789.412 7 195255601.772 7        -2.585          43.951    37496794.096 7 150984021.317 7        -1.901          44.312  
C08  37990357.642 5 197825720.466 5     -1739.591          34.819    37990357.783 6 152971429.679 6     -1345.601          38.876  
C03  36338785.748 7 189225574.057 7       -32.139          46.435    36338784.811 7 146321205.462 7       -24.770          45.397  
C04  38408472.670 7 200002986.609 7       -13.975          42.718    38408474.746 6 154655002.048 6       -10.959          40.100  
C22  22573377.621 6 117545515.373 6      1363.196          41.879                                                                  
C07  38176155.541 7 198793272.351 7      1390.032          42.595    38176157.202 7 153719568.629 7      1075.024          43.020  
C13  36644175.869 7 190815803.522 7     -1429.552          46.846    36644183.601 7 147550899.526 7     -1105.344          43.310  
C19  22803770.773 8 118745167.885 8      -923.642          48.656                                                                  
> 2020 11 19 06 01 17.0000000  0 18                     
G23  20284811.691 8 106597385.184 8      -418.623          48.501                                                                    20284811.192 7  83062889.045 7      -326.205          47.574  
G18  23079210.044 5 121282178.108 5     -3160.227          35.151                                                                                                                                  
G20  20045839.467 7 105341576.364 7      -862.538          47.730    20045837.645 7  82084328.999 7      -672.113          42.717                                                                  
G25  21608726.406 7 113554635.582 7      2247.485          46.470                                                                    21608732.438 7  88484132.049 7      1751.289          45.018  
G12  22109950.242 5 116188546.766 5       261.109          34.790                                                                    22109945.859 4  90536525.037 4       203.478          29.694  
G10  20800311.603 8 109306372.670 8      1739.499          50.062                                                                    20800312.402 7  85173799.972 7      1355.453          45.428  
G24  23342017.743 6 122663084.188 6     -3267.248          36.459                                                                                                                                  
R10  19399693.427 7 103410922.440 7      1610.272          45.204                                                                  
R09  20348650.279 7 108660271.799 7     -2338.231          47.779    20348650.702 7  84513546.288 7     -1818.625          45.091  
R07  20521988.975 7 109855382.850 7       978.952          47.218    20521989.572 7  85443094.381 7       761.407          44.268  
C01  37496789.913 7 195255604.372 7        -2.305          44.050    37496794.592 7 150984023.320 7        -1.650          44.047  
C08  37990691.865 5 197827460.752 5     -1740.309          35.694    37990691.984 6 152972775.338 6     -1345.424          38.751  
C03  36338791.909 7 189225606.151 7       -31.717          46.423    36338790.975 7 146321230.278 7       -24.555          45.111  
C04  38408475.409 7 200003000.786 7       -13.938          42.977    38408477.464 6 154655012.968 6       -10.547          39.726  
C22  22573115.898 6 117544152.370 6      1363.360          41.900                                                                  
C07  38175888.616 7 198791882.344 7      1390.464          42.419    38175890.267 7 153718493.782 7      1075.136          43.129  
C13  36644450.402 7 190817233.117 7     -1429.193          46.804    36644458.134 7 147552004.973 7     -1105.115          43.249  
C19  22803948.197 8 118746091.743 8      -923.696          48.269                                                                  
> 2020 11 19 06 01 18.0000000  0 18                     
G23  20284891.573 8 106597804.966 8      -422.319          48.359                                                                    20284891.086 7  83063216.141 7      -329.085          47.542  
G18  23079810.279 5 121285339.729 5     -3164.115          34.784                                                                                                                                  
G20  20046003.816 7 105342440.007 7      -866.146          47.583    20046002.000 7  82085001.958 7      -674.925          42.890                                                                  
G25  21608298.939 7 113552389.302 7      2243.785          46.632                                                                    21608304.975 7  88482381.705 7      1748.407          44.983  
G12  22109900.641 5 116188286.888 5       258.184          34.523                                                                    22109896.427 5  90536322.539 5       201.195          30.811  
G10  20799980.792 8 109304634.284 8      1735.847          50.077                                                                    20799981.590 7  85172445.386 7      1352.608          45.806  
G24  23342639.255 6 122666351.301 6     -3269.231          37.277                                                                                                                                  
R10  19399391.596 7 103409313.589 7      1606.237          45.053                                                                  
R09  20349088.367 7 108662611.164 7     -2342.112          47.762    20349088.763 7  84515365.795 7     -1821.644          44.883  
R07  20521806.286 7 109854404.858 7       975.493          47.126    20521806.853 7  85442333.719 7       758.717          44.084  
C01  37496790.498 7 195255607.420 7        -5.355          44.115    37496795.198 7 150984025.682 7        -4.102          44.523  
C08  37991026.184 5 197829201.505 5     -1742.924          35.778    37991026.275 6 152974121.420 6     -1347.822          38.609  
C03  36338798.160 7 189225638.699 7       -34.805          46.330    36338797.224 7 146321255.444 7       -26.919          45.355  
C04  38408478.191 7 200003015.364 7       -16.716          42.446    38408480.245 6 154655024.259 6       -12.883          39.387  
C22  22572854.287 6 117542790.003 6      1359.927          41.642                                                                  
C07  38175621.776 7 198790492.812 7      1387.317          42.244    38175623.421 7 153717419.328 7      1072.587          43.133  
C13  36644725.054 7 190818663.315 7     -1432.490          46.722    36644732.775 7 147553110.886 7     -1107.561          43.139  
C19  22804125.758 7 118747016.343 7      -927.095          47.926                                                                  
> 2020 11 19 06 01 19.0000000  0 18                     
G23  20284971.863 8 106598226.887 8      -420.254          48.245                                                                    20284971.391 7  83063544.906 7      -327.476          47.607  
G18  23080411.064 5 121288503.058 5     -3161.673          33.716                                                                                                                                  
G20  20046168.584 7 105343305.829 7      -864.191          47.544    20046166.774 7  82085676.619 7      -673.402          43.060                                                                  
G25  21607871.850 7 113550145.003 7      2245.928          46.296                                                                    21607877.899 7  88480632.906 7      1750.077          44.745  
G12  22109851.436 5 116188029.267 5       258.871          33.724                                                                    22109847.413 5  90536121.791 5       201.725          30.976  
G10  20799650.370 8 109302897.906 8      1738.141          49.962                                                                    20799651.169 7  85171092.367 7      1354.396          45.460  
G24  23343260.968 6 122669620.129 6     -3266.949          36.911                                                                                                                                  
R10  19399090.213 7 103407707.200 7      1607.815          45.239                                                                  
R09  20349526.874 7 108664952.819 7     -2340.022          47.549    20349527.255 7  84517187.082 7     -1820.018          45.209  
R07  20521623.949 7 109853428.718 7       977.966          47.165    20521624.478 7  85441574.502 7       760.641          44.205  
C01  37496791.381 7 195255612.019 7        -2.601          44.149    37496796.092 7 150984029.237 7        -1.892          44.206  
C08  37991360.812 6 197830943.946 6     -1740.593          36.249    37991360.879 6 152975468.756 6     -1345.749          38.803  
C03  36338804.711 7 189225672.796 7       -32.209          46.282    36338803.770 7 146321281.803 7       -24.791          45.351  
C04  38408481.293 7 200003031.533 7       -14.282          42.970    38408483.355 6 154655036.751 6       -10.824          39.730  
C22  22572593.001 6 117541429.383 6      1362.392          41.902                                                                  
C07  38175355.256 7 198789104.883 7      1389.671          42.453    38175356.872 7 153716346.063 7      1074.880          43.261  
C13  36645000.035 7 190820095.207 7     -1429.960          46.671    36645007.753 7 147554218.108 7     -1105.735          43.303  
C19  22804303.670 7 118747942.824 7      -924.658          47.853                                                                  
> 2020 11 19 06 01 20.0000000  0 18                     
G23  20285051.846 8 106598647.208 8      -420.299          48.317                                                                    20285051.381 7  83063872.423 7      -327.511          47.639  
G18  23081010.752 5 121291664.132 5     -3160.589          31.725                                                                    23081014.088 5  94512891.94815     -2462.797          35.654  
G20  20046333.055 7 105344170.110 7      -864.352          47.429    20046331.248 7  82086350.079 7      -673.527          42.731                                                                  
G25  21607444.427 7 113547898.990 7      2246.009          46.463                                                                    21607450.492 7  88478882.769 7      1750.140          44.559  
G12  22109801.961 5 116187770.117 5       258.830          33.292                                                                    22109797.990 5  90535919.841 5       201.686          30.653  
G10  20799319.624 8 109301159.819 8      1738.080          49.936                                                                    20799320.411 7  85169738.012 7      1354.348          45.694  
G24  23343882.928 6 122672886.849 6     -3266.772          36.771                                                                                                                                  
R10  19398788.601 7 103406099.468 7      1607.470          45.016                                                                  
R09  20349965.101 7 108667292.968 7     -2340.456          47.281    20349965.462 7  84519007.200 7     -1820.354          44.950  
R07  20521441.220 7 109852450.596 7       978.264          47.053    20521441.738 7  85440813.739 7       760.872          44.331  
C01  37496791.858 7 195255614.513 7        -2.206          44.222    37496796.569 7 150984031.158 7        -1.690          44.206  
C08  37991695.049 5 197832684.340 5     -1740.011          35.729    37991695.117 6 152976814.541 6     -1345.748          38.394  
C03  36338810.855 7 189225704.789 7       -31.799          46.366    36338809.920 7 146321306.547 7       -24.633          45.300  
C04  38408483.986 7 200003045.588 7       -13.813          42.920    38408486.045 6 154655047.627 6       -10.666          39.720  
C22  22572331.358 7 117540066.800 7      1362.540          42.219                                                                  
C07  38175088.320 7 198787714.847 7      1390.234          42.363    38175089.927 7 153715271.219 7      1074.929          43.213  
C13  36645274.632 7 190821525.115 7     -1429.753          46.644    36645282.343 7 147555323.806 7     -1105.546          43.306  
C19  22804481.226 7 118748867.487 7      -924.662          47.416                                                                  
> 2020 11 19 06 01 21.0000000  0 18                     
G23  20285132.379 8 106599070.414 8      -426.039          48.263                                                                    20285131.925 7  83064202.192 7      -331.983          47.847  
G18  23081610.853 5 121294827.646 5     -3165.974          31.189                                                                    23081612.959 6  94515357.032 6     -2466.993          36.655  
G20  20046498.091 7 105345037.307 7      -870.078          47.595    20046496.279 7  82087025.810 7      -677.989          43.592                                                                  
G25  21607017.539 7 113545655.720 7      2240.393          46.576                                                                    21607023.603 7  88477134.771 7      1745.764          44.377  
G12  22109753.010 5 116187513.858 5       253.374          32.369                                                                    22109749.251 5  90535720.134 5       197.428          31.807  
G10  20798989.387 8 109299424.457 8      1732.748          49.937                                                                    20798990.175 7  85168385.779 7      1350.193          45.655  
G24  23344505.042 6 122676155.865 6     -3271.528          36.456                                                                                                                                  
R10  19398487.567 7 103404494.924 7      1601.564          44.977                                                                  
R09  20350403.910 7 108669636.170 7     -2346.026          47.214    20350404.246 7  84520829.695 7     -1824.686          44.797  
R07  20521258.988 7 109851475.059 7       972.786          46.882    20521259.473 7  85440054.987 7       756.611          44.306  
C01  37496792.788 7 195255619.312 7        -7.359          44.219    37496797.492 7 150984034.859 7        -5.628          44.232  
C08  37992029.748 5 197834427.033 5     -1744.805          35.472    37992029.793 6 152978162.153 6     -1349.740          38.306  
C03  36338817.430 7 189225739.063 7       -36.788          46.362    36338816.501 7 146321333.050 7       -28.420          45.276  
C04  38408487.129 7 200003061.914 7       -18.755          42.857    38408489.185 6 154655060.275 6       -14.807          39.905  
C22  22572070.174 6 117538706.664 6      1357.714          41.740                                                                  
C07  38174821.841 7 198786327.095 7      1385.443          42.600    38174823.430 7 153714198.140 7      1070.991          43.120  
C13  36645549.686 7 190822957.439 7     -1434.852          46.532    36645557.400 7 147556431.384 7     -1109.685          43.112  
C19  22804659.273 7 118749794.743 7      -929.907          47.007                                                                  
> 2020 11 19 06 01 22.0000000  0 18                     
G23  20285213.563 8 106599497.078 8      -426.892          48.005                                                                    20285213.133 7  83064534.657 7      -332.647          47.826  
G18  23082211.065 4 121297994.142 4     -3166.411          28.758                                                                    23082213.409 6  94517824.471 6     -2467.333          36.320  
G20  20046663.783 7 105345908.002 7      -870.826          47.393    20046661.983 7  82087704.268 7      -678.572          42.882                                                                  
G25  21606591.285 7 113543415.759 7      2239.752          46.437                                                                    21606597.345 7  88475389.353 7      1745.266          44.318  
G12  22109704.751 5 116187261.113 5       252.565          33.822                                                                    22109701.183 5  90535523.151 5       196.792          31.563  
G10  20798659.797 8 109297692.440 8      1731.807          50.042                                                                    20798660.576 7  85167036.153 7      1349.458          45.395  
G24  23345127.667 6 122679427.891 6     -3271.846          36.344                                                                                                                                  
R10  19398187.277 7 103402894.179 7      1600.407          45.328                                                                  
R09  20350843.389 7 108671982.992 7     -2346.981          47.161    20350843.715 7  84522655.005 7     -1825.428          45.038  
R07  20521077.359 7 109850502.710 7       972.303          46.900    20521077.797 7  85439298.715 7       756.235          44.320  
C01  37496794.260 7 195255626.964 7        -7.534          43.925    37496798.970 7 150984040.802 7        -5.824          44.055  
C08  37992365.000 6 197836172.732 6     -1745.346          36.033    37992365.044 6 152979512.039 6     -1349.739          38.731  
C03  36338824.561 7 189225776.212 7       -37.081          46.401    36338823.643 7 146321361.783 7       -28.714          45.376  
C04  38408490.828 7 200003081.131 7       -18.826          42.738    38408492.881 6 154655075.123 6       -14.961          39.374  
C22  22571809.574 6 117537349.597 6      1357.504          41.959                                                                  
C07  38174555.905 7 198784942.279 7      1384.854          42.579    38174557.478 7 153713127.308 7      1070.714          42.845  
C13  36645825.328 7 190824392.806 7     -1435.382          46.298    36645833.033 7 147557541.277 7     -1109.972          43.264  
C19  22804837.921 7 118750725.161 7      -930.364          47.239                                                                  
> 2020 11 19 06 01 23.0000000  0 17                     
G23  20285294.768 7 106599923.841 7      -426.762          47.892                                                                    20285294.352 7  83064867.198 7      -332.545          47.977  
G20  20046829.505 7 105346778.846 7      -870.862          47.144    20046827.710 7  82088382.843 7      -678.599          43.833                                                                  
G25  21606165.019 7 113541175.759 7      2240.032          46.422                                                                    21606171.066 7  88473643.906 7      1745.485          44.246  
G12  22109656.590 5 116187008.598 5       252.752          34.355                                                                    22109653.270 5  90535326.357 5       196.934          31.638  
G10  20798330.195 8 109295960.394 8      1732.116          49.879                                                                    20798330.973 7  85165686.504 7      1349.699          46.033  
G24  23345750.237 6 122682699.437 6     -3271.363          36.406                                                                                                                                  
R10  19397887.026 7 103401293.812 7      1600.193          45.018                                                                  
R09  20351282.903 7 108674330.055 7     -2347.038          47.110    20351283.222 7  84524480.502 7     -1825.471          44.741  
R07  20520895.670 7 109849530.137 7       972.701          46.830    20520896.089 7  85438542.268 7       756.545          44.350  
C01  37496795.658 7 195255634.192 7        -6.963          44.500    37496800.348 7 150984046.369 7        -5.276          44.205  
C08  37992700.200 6 197837918.081 6     -1744.814          36.227    37992700.223 6 152980861.629 6     -1349.580          38.634  
C03  36338831.602 7 189225812.919 7       -36.614          46.448    36338830.695 7 146321390.152 7       -28.101          45.145  
C04  38408494.437 7 200003099.914 7       -18.413          42.715    38408496.483 6 154655089.624 6       -14.044          38.931  
C22  22571548.927 6 117535992.270 6      1357.467          41.703                                                                  
C07  38174289.892 7 198783557.017 7      1385.692          42.561    38174291.445 7 153712056.143 7      1071.447          42.947  
C13  36646100.909 7 190825827.869 7     -1434.938          46.205    36646108.609 7 147558650.955 7     -1109.459          43.228  
C19  22805016.538 7 118751655.462 7      -930.246          46.713                                                                  
> 2020 11 19 06 01 24.0000000  0 17                     
G23  20285375.928 7 106600350.370 7      -426.515          47.828                                                                    20285375.532 7  83065199.557 7      -332.352          47.926  
G20  20046995.185 7 105347649.482 7      -870.589          47.407    20046993.398 7  82089061.256 7      -678.387          43.004                                                                  
G25  21605738.682 7 113538935.392 7      2240.340          46.321                                                                    21605744.738 7  88471898.176 7      1745.726          43.722  
G12  22109608.400 5 116186755.733 5       253.587          35.655                                                                    22109605.236 5  90535129.298 5       197.583          31.682  
G10  20798000.520 8 109294227.981 8      1732.570          49.998                                                                    20798001.305 7  85164336.572 7      1350.053          45.569  
G24  23346372.872 5 122685970.292 5     -3270.591          35.914                                                                                                                                  
R10  19397586.785 7 103399693.457 7      1600.260          45.302                                                                  
R09  20351722.420 7 108676677.027 7     -2347.189          46.817    20351722.715 7  84526305.929 7     -1825.589          45.144  
R07  20520713.882 7 109848556.970 7       973.368          46.708    20520714.267 7  85437785.362 7       757.064          44.505  
C01  37496796.890 7 195255640.608 7        -6.141          44.204    37496801.583 7 150984051.350 7        -4.778          44.171  
C08  37993035.276 6 197839662.707 6     -1744.448          36.054    37993035.251 6 152982210.686 6     -1348.837          38.516  
C03  36338838.496 7 189225848.836 7       -35.786          46.454    36338837.605 7 146321417.939 7       -27.660          45.293  
C04  38408497.884 7 200003117.874 7       -17.625          42.997    38408499.943 6 154655103.518 6       -13.708          39.411  
C22  22571288.154 7 117534634.331 7      1358.094          42.206                                                                  
C07  38174023.740 7 198782171.014 7      1386.318          42.202    38174025.270 7 153710984.378 7      1071.982          43.050  
C13  36646376.375 7 190827262.278 7     -1434.321          46.159    36646384.063 7 147559760.129 7     -1109.089          43.347  
C19  22805195.051 7 118752585.265 7      -929.724          46.610                                                                  
> 2020 11 19 06 01 25.0000000  0 17                     
G23  20285457.157 7 106600777.272 7      -427.030          47.843                                                                    20285456.787 8  83065532.206 8      -332.753          48.053  
G20  20047160.945 7 105348520.558 7      -871.192          47.319    20047159.174 7  82089740.012 7      -678.856          42.881                                                                  
G25  21605312.408 7 113536695.268 7      2239.959          46.316                                                                    21605318.453 7  88470152.632 7      1745.429          43.812  
G12  22109560.337 5 116186503.425 5       252.165          35.692                                                                    22109557.286 5  90534932.676 5       196.476          31.781  
G10  20797670.896 8 109292495.827 8      1731.962          49.956                                                                    20797671.694 7  85162986.840 7      1349.580          45.927  
G24  23346995.215 5 122689241.037 5     -3270.556          35.277                                                                                                                                  
R10  19397286.686 7 103398093.755 7      1599.381          44.838                                                                  
R09  20352162.016 7 108679024.468 7     -2347.701          46.804    20352162.303 7  84528131.725 7     -1825.986          44.887  
R07  20520532.098 7 109847583.838 7       973.134          46.803    20520532.452 7  85437028.478 7       756.881          44.554  
C01  37496798.090 7 195255646.859 7        -6.100          44.440    37496802.780 7 150984056.188 7        -4.865          44.322  
C08  37993370.309 6 197841407.225 6     -1744.690          36.355    37993370.286 6 152983559.655 6     -1348.929          38.194  
C03  36338845.357 7 189225884.568 7       -35.733          46.278    36338844.469 7 146321445.567 7       -27.628          45.265  
C04  38408501.301 7 200003135.669 7       -17.572          42.706    38408503.356 6 154655117.297 6       -14.029          38.943  
C22  22571027.390 7 117533276.370 7      1357.966          42.110                                                                  
C07  38173757.555 7 198780784.851 7      1386.102          42.368    38173759.073 7 153709912.528 7      1071.721          43.279  
C13  36646651.837 7 190828696.654 7     -1434.413          46.016    36646659.515 7 147560869.282 7     -1109.226          43.312  
C19  22805373.579 7 118753515.195 7      -930.066          46.022                                                                  
> 2020 11 19 06 01 26.0000000  0 18                     
G31  22923472.169 5 120463657.60625      2824.225          33.191                                                                                                                                  
G23  20285538.383 7 106601204.132 7      -426.705          47.801                                                                    20285538.041 8  83065864.822 8      -332.499          48.243  
G20  20047326.696 7 105349391.623 7      -870.862          47.135    20047324.961 7  82090418.763 7      -678.597          43.637                                                                  
G25  21604886.094 7 113534454.974 7      2240.496          46.346                                                                    21604892.125 7  88468406.960 7      1745.849          43.557  
G12  22109512.301 6 116186251.096 6       252.454          36.176                                                                    22109509.295 5  90534736.043 5       196.703          32.216  
G10  20797341.235 8 109290763.496 8      1732.595          50.013                                                                    20797342.039 7  85161636.974 7      1350.074          45.936  
G24  23347617.458 5 122692511.100 5     -3269.097          34.961                                                                                                                                  
R10  19396986.588 7 103396494.261 7      1599.613          45.031                                                                  
R09  20352601.633 7 108681371.993 7     -2347.400          46.721    20352601.909 7  84529957.582 7     -1825.751          45.021  
R07  20520350.229 7 109846610.319 7       973.842          46.680    20520350.570 7  85436271.297 7       757.432          44.415  
C01  37496799.179 7 195255652.514 7        -5.197          44.265    37496803.860 7 150984060.556 7        -4.113          44.266  
C08  37993705.234 6 197843151.239 6     -1743.537          36.115    37993705.224 6 152984908.249 6     -1348.240          38.340  
C03  36338852.107 7 189225919.716 7       -34.783          46.407    36338851.213 7 146321472.745 7       -26.920          45.208  
C04  38408504.603 7 200003152.874 7       -16.775          42.621    38408506.652 6 154655130.578 6       -12.804          39.442  
C22  22570766.539 6 117531918.010 6      1358.606          41.838                                                                  
C07  38173491.262 7 198779398.110 7      1387.325          42.049    38173492.763 7 153708840.192 7      1072.661          43.517  
C13  36646927.206 7 190830130.575 7     -1433.584          46.002    36646934.868 7 147561978.089 7     -1108.708          43.261  
C19  22805552.047 7 118754444.834 7      -929.438          45.946                                                                  
> 2020 11 19 06 01 27.0000000  0 18                     
G31  22922927.874 5 120460830.45625      2827.928          33.563                                                                                                                                  
G23  20285619.189 7 106601628.797 7      -423.179          47.941                                                                    20285618.869 8  83066195.726 8      -329.753          48.319  
G20  20047492.041 7 105350260.541 7      -867.436          47.006    20047490.335 7  82091095.840 7      -675.928          43.331                                                                  
G25  21604459.341 7 113532212.331 7      2244.285          46.552                                                                    21604465.357 7  88466659.455 7      1748.802          43.356  
G12  22109463.863 6 116185996.591 6       256.053          36.377                                                                    22109460.909 5  90534537.721 5       199.511          31.609  
G10  20797011.138 8 109289028.843 8      1736.089          50.064                                                                    20797011.948 7  85160285.297 7      1352.796          46.022  
G24  23348239.198 5 122695778.544 5     -3266.885          35.387    23348248.468 4  95607172.42914     -2545.625          25.812                                                                  
R10  19396686.135 7 103394892.804 7      1602.891          44.912                                                                  
R09  20353040.852 7 108683717.401 7     -2344.024          46.839    20353041.130 7  84531781.794 7     -1823.125          44.923  
R07  20520167.885 7 109845634.210 7       977.773          46.774    20520168.199 7  85435512.099 7       760.489          44.371  
C01  37496799.742 7 195255655.464 7        -1.177          44.110    37496804.421 7 150984062.818 7        -0.956          44.253  
C08  37994039.673 6 197844892.598 6     -1739.919          36.235    37994039.626 6 152986254.770 6     -1345.120          38.366  
C03  36338858.336 7 189225952.123 7       -30.652          46.311    36338857.439 7 146321497.804 7       -23.836          45.019  
C04  38408507.384 7 200003167.343 7       -12.775          42.757    38408509.423 6 154655141.786 6        -9.874          39.642  
C22  22570505.197 7 117530557.080 7      1362.479          42.055                                                                  
C07  38173224.448 6 198778008.676 6      1391.264          41.981    38173225.945 7 153707765.799 7      1075.797          43.287  
C13  36647202.074 7 190831561.904 7     -1429.639          45.742    36647209.719 7 147563084.869 7     -1105.403          43.148  
C19  22805730.048 7 118755372.033 7      -925.790          45.626                                                                  
> 2020 11 19 06 01 28.0000000  0 19                     
G31  22922394.406 5 120458003.24725      2826.836          33.875                                                                                                                                  
G23  20285700.006 7 106602053.533 7      -425.462          47.879                                                                    20285699.702 8  83066526.687 8      -331.531          48.375  
G18  23085816.927 5 121316785.11215     -3161.795          34.064                                                                                                                                  
G20  20047657.409 7 105351129.564 7      -869.836          46.764    20047655.733 7  82091772.996 7      -677.798          43.917                                                                  
G25  21604032.572 7 113529969.639 7      2242.104          46.173                                                                    21604038.568 7  88464911.911 7      1747.101          43.402  
G12  22109415.472 6 116185742.259 6       252.958          36.822                                                                    22109412.629 5  90534339.547 5       197.103          31.056  
G10  20796681.026 8 109287294.120 8      1734.059          50.109                                                                    20796681.833 7  85158933.567 7      1351.216          45.941  
G24  23348860.875 5 122699045.502 5     -3268.245          34.777                                                                                                                                  
R10  19396385.759 7 103393291.693 7      1600.235          44.918                                                                  
R09  20353480.104 7 108686062.974 7     -2346.506          46.841    20353480.382 7  84533606.132 7     -1825.056          44.861  
R07  20519985.507 7 109844657.852 7       975.718          46.805    20519985.785 7  85434752.707 7       758.891          44.298  
C01  37496800.212 7 195255657.900 7        -2.745          44.313    37496804.907 7 150984064.721 7        -2.399          44.397  
C08  37994374.034 5 197846633.534 5     -1742.258          35.527    37994373.951 6 152987600.999 6     -1346.782          37.978  
C03  36338864.477 7 189225984.056 7       -32.437          46.412    36338863.573 7 146321522.490 7       -25.145          45.081  
C04  38408510.072 7 200003181.342 7       -14.497          42.600    38408512.103 6 154655152.599 6       -11.114          39.197  
C22  22570243.782 6 117529195.824 6      1360.793          41.798                                                                  
C07  38172957.546 7 198776618.770 7      1389.363          42.386    38172959.028 7 153706691.042 7      1074.256          43.279  
C13  36647476.872 7 190832992.891 7     -1431.630          45.738    36647484.518 7 147564191.393 7     -1106.891          43.171  
C19  22805908.017 7 118756299.053 7      -927.522          45.641                                                                  
> 2020 11 19 06 01 29.0000000  0 19                     
G31  22921856.668 5 120455173.68525      2832.713          33.794    22921862.297 5  93861193.28215      2207.309          32.732                                                                  
G23  20285780.404 7 106602476.104 7      -420.062          47.729                                                                    20285780.120 8  83066855.957 8      -327.325          48.395  
G18  23086421.095 5 121319944.067 5     -3155.932          34.503                                                                    23086421.933 6  94535027.712 6     -2459.168          36.990  
G20  20047822.369 7 105351996.464 7      -864.524          46.919    20047820.724 7  82092448.495 7      -673.660          43.865                                                                  
G25  21603605.357 7 113527724.640 7      2247.465          46.140                                                                    21603611.355 7  88463162.563 7      1751.278          42.934  
G12  22109366.663 6 116185485.730 6       259.259          36.648                                                                    22109363.837 5  90534139.663 5       202.017          32.296  
G10  20796350.477 8 109285557.119 8      1739.438          50.125                                                                    20796351.297 7  85157580.060 7      1355.406          45.828  
G24  23349482.010 5 122702309.732 5     -3261.455          33.510                                                                                                                                  
R10  19396085.006 7 103391688.655 7      1605.410          44.881                                                                  
R09  20353918.952 7 108688406.448 7     -2340.942          46.875    20353919.244 7  84535428.837 7     -1820.728          44.959  
R07  20519802.637 7 109843678.932 7       981.606          46.753    20519802.887 7  85433991.321 7       763.469          44.433  
C01  37496800.171 7 195255657.651 7         2.819          44.290    37496804.857 7 150984064.498 7         2.441          44.214  
C08  37994707.868 6 197848371.848 6     -1735.539          36.292    37994707.768 6 152988945.171 6     -1342.308          37.869  
C03  36338870.093 7 189226013.286 7       -26.414          46.343    36338869.183 7 146321545.084 7       -20.410          45.123  
C04  38408512.225 7 200003192.622 7        -8.594          42.805    38408514.266 6 154655161.313 6        -6.608          39.437  
C22  22569981.898 6 117527832.060 6      1366.405          41.762                                                                  
C07  38172690.138 7 198775226.209 7      1395.068          42.043    38172691.617 7 153705614.200 7      1078.899          43.548  
C13  36647751.183 7 190834421.297 7     -1425.870          45.759    36647758.823 7 147565295.921 7     -1102.475          43.180  
C19  22806085.539 7 118757223.700 7      -922.112          45.718                                                                  
> 2020 11 19 06 01 30.0000000  0 19                     
G31  22921319.132 5 120452343.67615      2831.697          33.214    22921326.192 5  93858986.44015      2206.517          31.746                                                                  
G23  20285860.379 7 106602896.434 7      -421.260          47.807                                                                    20285860.111 8  83067183.482 8      -328.258          48.475  
G18  23087022.331 5 121323100.192 5     -3156.274          35.677                                                                    23087025.322 6  94537487.032 6     -2459.435          36.917  
G20  20047986.923 7 105352861.178 7      -865.694          46.815    20047985.297 7  82093122.295 7      -674.571          44.036                                                                  
G25  21603177.685 7 113525477.259 7      2246.727          46.198                                                                    21603183.675 7  88461411.363 7      1750.703          42.867  
G12  22109317.489 6 116185227.112 6       257.676          36.574                                                                    22109314.703 5  90533938.159 5       200.788          31.557  
G10  20796019.475 8 109283817.732 8      1738.632          50.160                                                                    20796020.295 7  85156224.693 7      1354.779          45.981  
G24  23350102.680 5 122705571.253 5     -3262.469          31.762                                                                                                                                  
R10  19395783.897 7 103390083.617 7      1604.114          44.689                                                                  
R09  20354357.413 7 108690747.794 7     -2342.294          46.888    20354357.706 7  84537249.888 7     -1821.780          44.821  
R07  20519619.305 7 109842697.400 7       980.914          46.797    20519619.506 7  85433227.905 7       762.931          44.406  
C01  37496799.590 7 195255654.628 7         2.476          44.298    37496804.279 7 150984062.177 7         1.981          44.376  
C08  37995041.185 5 197850107.474 5     -1736.007          35.807    37995041.089 6 152990287.287 6     -1342.529          37.822  
C03  36338875.172 7 189226039.743 7       -26.890          46.346    36338874.269 7 146321565.546 7       -20.816          45.063  
C04  38408513.857 7 200003201.131 7        -9.133          42.446    38408515.899 6 154655167.916 6        -7.063          39.333  
C22  22569719.527 6 117526465.712 6      1365.427          41.850                                                                  
C07  38172422.193 7 198773830.876 7      1394.710          42.539    38172423.660 7 153704535.254 7      1078.508          43.339  
C13  36648024.977 7 190835847.059 7     -1426.358          45.474    36648032.619 7 147566398.419 7     -1102.893          43.233  
C19  22806262.595 7 118758145.857 7      -922.807          45.664                                                                  
> 2020 11 19 06 01 31.0000000  0 19                     
G31  22920780.031 5 120449511.962 5      2833.818          33.721                                                                                                                                  
G23  20285940.448 7 106603317.257 7      -419.900          47.709                                                                    20285940.203 8  83067511.392 8      -327.199          48.403  
G18  23087623.626 5 121326256.413 5     -3155.127          35.994                                                                    23087627.115 6  94539946.435 6     -2458.541          36.518  
G20  20048151.567 7 105353726.398 7      -864.239          46.863    20048149.970 7  82093796.489 7      -673.437          43.777                                                                  
G25  21602750.085 7 113523230.236 7      2248.148          46.104                                                                    21602756.083 7  88459660.437 7      1751.808          42.715  
G12  22109268.375 6 116184968.969 6       259.102          37.930                                                                    22109265.526 5  90533737.020 5       201.901          30.850  
G10  20795688.552 8 109282078.729 8      1740.161          50.298                                                                    20795689.375 7  85154869.628 7      1355.970          45.598  
G24  23350723.538 5 122708832.762 5     -3260.432          31.307                                                                                                                                  
R10  19395482.938 7 103388479.360 7      1605.264          44.701                                                                  
R09  20354795.979 7 108693089.766 7     -2340.989          46.881    20354796.290 7  84539071.423 7     -1820.766          44.884  
R07  20519435.979 7 109841716.036 7       982.605          46.986    20519436.151 7  85432464.622 7       764.247          44.551  
C01  37496798.990 7 195255651.541 7         4.429          43.722    37496803.686 7 150984059.791 7         3.345          44.124  
C08  37995374.490 6 197851843.105 6     -1733.949          36.583    37995374.403 6 152991629.385 6     -1341.068          37.415  
C03  36338880.237 7 189226066.135 7       -24.975          46.324    36338879.342 7 146321585.958 7       -19.438          45.270  
C04  38408515.476 7 200003209.579 7        -7.109          42.598    38408517.498 6 154655174.416 6        -5.575          39.685  
C22  22569457.174 6 117525099.460 6      1367.561          41.999                                                                  
C07  38172154.238 7 198772435.517 7      1396.785          42.406    38172155.699 7 153703456.270 7      1079.956          43.271  
C13  36648298.798 7 190837272.907 7     -1424.563          45.265    36648306.436 7 147567500.979 7     -1101.661          43.236  
C19  22806439.702 7 118759068.285 7      -921.426          45.958                                                                  
> 2020 11 19 06 01 32.0000000  0 19                     
G31  22920241.844 5 120446679.274 5      2831.386          33.645                                                                                                                                  
G23  20286020.354 7 106603737.209 7      -420.407          47.899                                                                    20286020.121 8  83067838.623 8      -327.594          48.472  
G18  23088224.029 6 121329411.218 6     -3154.807          36.059                                                                    23088229.069 6  94542404.738 6     -2458.292          36.274  
G20  20048316.042 7 105354590.807 7      -864.889          46.788    20048314.495 7  82094470.048 7      -673.944          44.166                                                                  
G25  21602322.293 7 113520982.214 7      2247.727          46.015                                                                    21602328.279 7  88457908.733 7      1751.480          43.001  
G12  22109219.122 6 116184710.068 6       258.516          37.431                                                                    22109216.328 5  90533535.290 5       201.446          31.088  
G10  20795357.434 8 109280338.713 8      1739.638          50.198                                                                    20795358.253 7  85153513.771 7      1355.562          45.909  
G24  23351343.801 5 122712092.797 5     -3260.750          31.499                                                                                                                                  
R10  19395181.865 7 103386874.526 7      1604.099          44.807                                                                  
R09  20355234.420 7 108695430.956 7     -2341.733          47.042    20355234.731 7  84540892.350 7     -1821.345          44.728  
R07  20519252.427 7 109840733.429 7       982.299          47.232    20519252.567 7  85431700.368 7       764.008          44.503  
C01  37496798.136 7 195255647.066 7         4.160          44.086    37496802.823 7 150984056.318 7         3.345          44.402  
C08  37995707.567 6 197853577.444 6     -1734.349          36.448    37995707.514 6 152992970.492 6     -1341.373          37.709  
C03  36338885.035 7 189226091.129 7       -25.069          46.082    36338884.144 7 146321605.276 7       -19.376          45.048  
C04  38408516.823 7 200003216.629 7        -7.288          42.697    38408518.839 6 154655179.884 6        -5.361          39.457  
C22  22569194.569 6 117523731.976 6      1367.292          41.883                                                                  
C07  38171886.017 7 198771038.786 7      1396.521          42.125    38171887.469 7 153702376.242 7      1079.710          43.302  
C13  36648572.367 7 190838697.481 7     -1424.717          45.225    36648580.005 7 147568602.551 7     -1101.748          43.539  
C19  22806616.614 7 118759989.575 7      -921.596          46.027                                                                  
> 2020 11 19 06 01 33.0000000  0 18                     
G31  22919702.618 5 120443847.194 5      2831.830          33.292    22919704.281 4  93852351.758 4      2206.620          28.233                                                                  
G23  20286100.433 7 106604158.084 7      -421.058          47.831                                                                    20286100.230 8  83068166.576 8      -328.101          48.414  
G18  23088822.942 6 121332566.454 6     -3155.696          36.011                                                                    23088829.604 6  94544863.375 6     -2458.984          36.004  
G20  20048480.703 7 105355456.169 7      -865.448          46.809    20048479.209 7  82095144.355 7      -674.379          43.162                                                                  
G25  21601894.653 7 113518734.972 7      2247.021          45.825                                                                    21601900.616 7  88456157.643 7      1750.931          42.885  
G12  22109170.048 6 116184452.130 6       257.733          38.561                                                                    22109167.358 5  90533334.307 5       200.836          31.413  
G10  20795026.471 8 109278599.509 8      1739.043          50.357                                                                    20795027.281 7  85152158.548 7      1355.099          45.613  
R10  19394881.007 7 103385270.873 7      1603.303          44.780                                                                  
R09  20355673.053 7 108697773.224 7     -2342.553          47.010    20355673.374 7  84542714.117 7     -1821.982          44.951  
R07  20519068.988 7 109839751.415 7       981.949          47.353    20519069.097 7  85430936.580 7       763.737          44.522  
C01  37496797.328 7 195255642.918 7         4.254          43.833    37496802.035 7 150984053.134 7         3.209          44.169  
C08  37996040.719 6 197855312.237 6     -1734.497          36.188    37996040.673 6 152994311.917 6     -1341.696          37.196  
C03  36338889.901 7 189226116.467 7       -25.198          46.382    36338889.012 7 146321624.873 7       -19.536          45.303  
C04  38408518.229 7 200003224.011 7        -7.024          42.919    38408520.261 6 154655185.615 6        -5.783          39.866  
C22  22568932.086 7 117522365.028 7      1367.054          42.144                                                                  
C07  38171617.879 7 198769642.428 7      1396.441          42.564    38171619.311 7 153701296.480 7      1079.789          43.253  
C13  36648846.047 7 190840122.538 7     -1424.922          45.256    36648853.677 7 147569704.498 7     -1101.917          43.548  
C19  22806793.674 7 118760911.567 7      -922.100          46.346                                                                  
> 2020 11 19 06 01 34.0000000  0 18                     
G31  22919164.487 5 120441015.876 5      2830.583          32.843                                                                                                                                  
G23  20286180.688 7 106604579.874 7      -422.446          47.802                                                                    20286180.507 8  83068495.242 8      -329.181          48.443  
G18  23089424.104 5 121335722.082 5     -3156.553          35.249                                                                    23089428.849 5  94547322.311 5     -2459.651          35.045  
G20  20048645.550 7 105356322.499 7      -867.030          46.705    20048644.104 7  82095819.415 7      -675.612          43.683                                                                  
G25  21601467.165 7 113516488.522 7      2246.007          45.484                                                                    21601473.098 7  88454407.167 7      1750.140          42.776  
G12  22109121.150 6 116184195.146 6       256.480          38.210                                                                    22109118.525 5  90533134.070 5       199.861          31.224  
G10  20794695.661 8 109276861.100 8      1737.796          50.292                                                                    20794696.468 7  85150803.945 7      1354.127          45.694  
R10  19394580.389 7 103383668.452 7      1601.609          44.724                                                                  
R09  20356111.876 7 108700116.550 7     -2344.077          47.274    20356112.225 7  84544536.708 7     -1823.168          45.087  
R07  20518885.651 7 109838769.972 7       981.005          47.593    20518885.736 7  85430173.235 7       763.003          44.530  
C01  37496796.612 7 195255639.139 7         3.537          44.175    37496801.310 7 150984050.203 7         2.622          44.321  
C08  37996373.947 6 197857047.417 6     -1735.484          36.325    37996373.906 6 152995653.670 6     -1341.927          37.316  
C03  36338894.835 7 189226142.171 7       -25.939          46.379    36338893.944 7 146321644.753 7       -20.217          45.401  
C04  38408519.717 7 200003231.791 7        -8.556          42.594    38408521.766 6 154655191.647 6        -6.658          39.967  
C22  22568669.693 6 117520998.612 6      1366.000          41.846                                                                  
C07  38171349.807 7 198768246.465 7      1395.417          42.268    38171351.242 7 153700217.017 7      1079.224          43.596  
C13  36649119.813 7 190841548.126 7     -1426.196          45.446    36649127.442 7 147570806.835 7     -1102.685          43.289  
C19  22806970.862 7 118761834.211 7      -923.113          46.553                                                                  
> 2020 11 19 06 01 35.0000000  0 17                     
G23  20286261.195 7 106605002.913 7      -424.932          47.955                                                                    20286261.029 8  83068824.881 8      -331.119          48.556  
G18  23090024.417 5 121338878.499 5     -3158.317          35.039                                                                    23090029.230 5  94549781.858 5     -2461.025          35.362  
G20  20048810.643 7 105357190.093 7      -869.561          46.810    20048809.232 7  82096495.461 7      -677.583          44.026                                                                  
G25  21601039.887 7 113514243.190 7      2243.344          45.323                                                                    21601045.810 7  88452657.558 7      1748.064          42.997  
G12  22109072.546 6 116183939.517 6       253.778          38.175                                                                    22109069.978 5  90532934.884 5       197.755          31.814  
G10  20794365.059 8 109275123.784 8      1735.512          50.218                                                                    20794365.871 7  85149450.192 7      1352.348          45.806  
R10  19394280.069 7 103382067.569 7      1598.827          44.883                                                                  
R09  20356550.963 7 108702461.248 7     -2346.690          47.243    20356551.333 7  84546360.364 7     -1825.200          44.916  
R07  20518702.495 7 109837789.453 7       978.757          47.516    20518702.541 7  85429410.612 7       761.255          44.616  
C01  37496796.032 7 195255636.048 7         1.561          44.183    37496800.714 7 150984047.812 7         1.203          44.330  
C08  37996707.310 5 197858783.348 5     -1737.510          35.829    37996707.305 6 152996996.016 6     -1343.595          36.985  
C03  36338899.906 7 189226168.569 7       -28.105          46.031    36338899.004 7 146321665.151 7       -21.589          45.146  
C04  38408521.346 7 200003240.233 7        -9.899          42.564    38408523.380 6 154655198.139 6        -7.621          39.844  
C22  22568407.473 6 117519633.060 6      1363.934          41.612                                                                  
C07  38171081.879 6 198766851.210 6      1393.540          41.964    38171083.302 7 153699138.127 7      1077.674          43.456  
C13  36649393.734 7 190842974.512 7     -1427.830          45.033    36649401.351 7 147571909.822 7     -1104.175          43.420  
C19  22807148.247 7 118762757.832 7      -925.428          46.470                                                                  
> 2020 11 19 06 01 36.0000000  0 17                     
G23  20286342.459 7 106605430.035 7      -428.290          47.809                                                                    20286342.315 8  83069157.701 8      -333.735          48.612  
G18  23090625.385 5 121342038.518 5     -3161.329          34.427                                                                    23090629.822 5  94552244.205 5     -2463.374          34.220  
G20  20048976.512 7 105358061.820 7      -872.809          46.763    20048975.143 7  82097174.726 7      -680.114          43.719                                                                  
G25  21600613.352 7 113512001.789 7      2240.372          45.205                                                                    21600619.277 7  88450911.010 7      1745.747          42.856  
G12  22109024.704 6 116183687.992 6       250.553          39.073                                                                    22109022.111 5  90532738.895 5       195.243          31.140  
G10  20794035.217 8 109273390.449 8      1732.267          50.306                                                                    20794036.017 7  85148099.541 7      1349.819          45.727  
R10  19393980.568 7 103380471.121 7      1595.124          44.854                                                                  
R09  20356990.852 7 108704810.215 7     -2350.075          47.426    20356991.245 7  84548187.341 7     -1827.834          45.027  
R07  20518520.057 7 109836812.765 7       975.719          47.674    20518520.069 7  85428650.967 7       758.892          44.633  
C01  37496796.120 7 195255636.479 7        -1.530          44.131    37496800.783 7 150984048.135 7        -1.039          44.248  
C08  37997041.371 6 197860522.909 6     -1740.851          36.417    37997041.399 6 152998341.138 6     -1345.835          37.173  
C03  36338905.641 7 189226198.442 7       -30.780          46.219    36338904.739 7 146321688.256 7       -23.758          45.302  
C04  38408523.642 7 200003252.168 7       -12.911          42.816    38408525.678 6 154655207.366 6        -9.910          39.880  
C22  22568145.957 6 117518271.182 6      1360.991          41.331                                                                  
C07  38170814.630 7 198765459.468 7      1390.793          42.107    38170816.031 7 153698061.938 7      1075.603          43.614  
C13  36649668.362 7 190844404.550 7     -1430.902          45.365    36649675.960 7 147573015.609 7     -1106.317          43.591  
C19  22807326.375 7 118763685.251 7      -928.276          46.772                                                                  
> 2020 11 19 06 01 37.0000000  0 17                     
G23  20286423.976 7 106605858.448 7      -428.857          47.944                                                                    20286423.848 8  83069491.528 8      -334.177          48.655  
G18  23091226.675 5 121345199.247 5     -3161.387          33.685                                                                    23091231.046 5  94554707.106 5     -2463.419          33.752  
G20  20049142.638 7 105358934.888 7      -873.614          46.858    20049141.304 7  82097855.034 7      -680.741          43.987                                                                  
G25  21600187.041 7 113509761.542 7      2239.861          44.985                                                                    21600192.961 7  88449165.360 7      1745.347          42.952  
G12  22108977.145 6 116183437.809 6       249.979          39.389                                                                    22108974.530 5  90532543.957 5       194.795          31.600  
G10  20793705.591 8 109271658.268 8      1731.787          50.241                                                                    20793706.389 7  85146749.791 7      1349.445          45.836  
R10  19393681.369 7 103378876.256 7      1594.026          44.975                                                                  
R09  20357431.017 7 108707160.633 7     -2350.905          47.549    20357431.427 7  84550015.444 7     -1828.479          44.891  
R07  20518337.785 7 109835837.046 7       975.417          47.685    20518337.779 7  85427892.075 7       758.658          44.738  
C01  37496796.346 7 195255637.588 7        -1.261          44.568    37496800.986 7 150984049.002 7        -1.061          44.519  
C08  37997375.579 6 197862263.222 6     -1740.868          36.230    37997375.627 6 152999686.871 6     -1345.718          36.775  
C03  36338911.513 7 189226229.045 7       -30.749          46.096    36338910.620 7 146321711.917 7       -23.829          45.360  
C04  38408526.079 7 200003264.834 7       -12.840          42.547    38408528.092 6 154655217.154 6        -9.885          39.716  
C22  22567884.606 6 117516910.196 6      1360.505          41.553                                                                  
C07  38170547.502 6 198764068.448 6      1390.900          41.863    38170548.900 7 153696986.333 7      1075.364          43.674  
C13  36649943.155 7 190845835.459 7     -1431.223          45.221    36649950.743 7 147574122.070 7     -1106.607          43.567  
C19  22807504.708 7 118764613.705 7      -928.696          46.886                                                                  
> 2020 11 19 06 01 38.0000000  0 17                     
G23  20286505.654 7 106606287.707 7      -429.686          47.730                                                                    20286505.543 8  83069826.013 8      -334.823          48.698  
G18  23091828.142 5 121348360.396 5     -3161.808          32.835                                                                    23091832.574 5  94557170.339 5     -2463.748          33.537  
G20  20049308.926 7 105359808.839 7      -874.478          46.685    20049307.651 7  82098536.032 7      -681.415          43.967                                                                  
G25  21599760.864 7 113507522.017 7      2239.355          44.747                                                                    21599766.770 7  88447420.274 7      1744.952          42.756  
G12  22108929.757 6 116183188.582 6       248.667          39.923                                                                    22108927.156 5  90532349.763 5       193.774          31.854  
G10  20793376.105 8 109269926.797 8      1731.072          50.321                                                                    20793376.897 7  85145400.592 7      1348.887          45.782  
R10  19393382.398 7 103377282.513 7      1593.074          44.941                                                                  
R09  20357871.347 7 108709512.003 7     -2351.950          47.577    20357871.791 7  84551844.286 7     -1829.293          44.917  
R07  20518155.626 7 109834861.852 7       974.858          47.830    20518155.577 7  85427133.590 7       758.223          44.532  
C01  37496796.622 7 195255639.000 7        -1.448          43.876    37496801.257 7 150984050.096 7        -1.223          44.295  
C08  37997709.869 5 197864003.886 5     -1740.694          35.804    37997709.920 6 153001032.885 6     -1346.075          36.904  
C03  36338917.445 7 189226259.939 7       -31.023          46.238    36338916.547 7 146321735.810 7       -24.044          45.400  
C04  38408528.555 7 200003277.770 7       -12.928          42.615    38408530.599 6 154655227.178 6       -10.200          40.083  
C22  22567623.341 6 117515549.678 6      1360.147          41.416                                                                  
C07  38170280.456 7 198762677.776 7      1390.570          42.393    38170281.837 7 153695910.964 7      1075.230          43.630  
C13  36650218.023 7 190847266.780 7     -1431.596          45.249    36650225.608 7 147575228.872 7     -1106.973          43.600  
C19  22807683.165 7 118765542.770 7      -929.355          47.247                                                                  
> 2020 11 19 06 01 39.0000000  0 17                     
G23  20286587.469 7 106606717.677 7      -430.221          47.985                                                                    20286587.371 8  83070161.052 8      -335.240          48.677  
G18  23092429.268 5 121351521.630 5     -3161.187          32.279                                                                    23092433.333 5  94559633.640 5     -2463.262          33.322  
G20  20049475.369 7 105360683.514 7      -874.912          46.904    20049474.122 7  82099217.591 7      -681.753          43.922                                                                  
G25  21599334.796 7 113505283.069 7      2238.719          44.908                                                                    21599340.676 7  88445675.637 7      1744.457          42.958  
G12  22108882.503 6 116182940.080 6       248.237          39.892                                                                    22108879.888 5  90532156.133 5       193.438          31.393  
G10  20793046.731 8 109268195.928 8      1730.589          50.245                                                                    20793047.522 7  85144051.862 7      1348.511          46.061  
R10  19393083.603 7 103375689.739 7      1592.409          44.979                                                                  
R09  20358311.833 7 108711864.185 7     -2352.533          47.527    20358312.307 7  84553673.762 7     -1829.747          44.875  
R07  20517973.528 7 109833887.035 7       974.750          47.569    20517973.446 7  85426375.398 7       758.138          44.718  
C01  37496796.926 7 195255640.578 7        -1.453          44.404    37496801.562 7 150984051.307 7        -1.172          44.575  
C08  37998044.227 5 197865744.799 5     -1740.732          35.947    37998044.267 6 153002379.059 6     -1346.196          36.635  
C03  36338923.402 7 189226290.963 7       -30.878          46.076    36338922.511 7 146321759.804 7       -24.114          45.321  
C04  38408531.070 7 200003290.874 7       -13.050          42.457    38408533.107 6 154655237.306 6       -10.210          39.654  
C22  22567362.136 6 117514189.456 6      1360.110          41.495                                                                  
C07  38170013.440 6 198761287.282 6      1390.530          41.982    38170014.811 7 153694835.749 7      1075.185          43.427  
C13  36650492.951 7 190848698.394 7     -1431.635          45.096    36650500.528 7 147576335.886 7     -1107.099          43.696  
C19  22807861.703 7 118766472.259 7      -929.660          47.150                                                                  
> 2020 11 19 06 01 40.0000000  0 17                     
G23  20286669.453 7 106607148.471 7      -431.190          47.833                                                                    20286669.348 8  83070496.735 8      -335.994          48.563  
G18  23093030.643 5 121354683.336 5     -3161.603          30.632                                                                    23093034.878 5  94562097.313 5     -2463.585          31.399  
G20  20049641.980 7 105361559.097 7      -876.041          46.877    20049640.774 7  82099899.861 7      -682.633          43.270                                                                  
G25  21598908.865 7 113503044.831 7      2237.665          44.567                                                                    21598914.750 7  88443931.554 7      1743.635          43.047  
G12  22108835.427 6 116182692.497 6       247.105          39.942                                                                    22108832.748 5  90531963.218 5       192.556          30.924  
G10  20792717.489 8 109266465.753 8      1729.851          50.401                                                                    20792718.286 7  85142703.674 7      1347.936          45.672  
R10  19392785.025 7 103374098.090 7      1591.067          44.923                                                                  
R09  20358752.512 7 108714217.377 7     -2353.761          47.536    20358753.013 7  84555504.023 7     -1830.702          44.954  
R07  20517791.530 7 109832912.753 7       974.025          47.617    20517791.422 7  85425617.626 7       757.576          44.631  
C01  37496797.284 7 195255642.418 7        -1.920          43.894    37496801.912 7 150984052.744 7        -1.564          44.210  
C08  37998378.619 6 197867486.104 6     -1741.017          36.347    37998378.707 6 153003725.546 6     -1346.702          36.119  
C03  36338929.424 7 189226322.278 7       -31.381          46.306    36338928.530 7 146321784.021 7       -24.359          45.466  
C04  38408533.634 7 200003304.245 7       -13.494          42.687    38408535.682 6 154655247.612 6       -10.365          39.742  
C22  22567101.018 6 117512829.703 6      1359.699          41.641                                                                  
C07  38169746.479 7 198759897.072 7      1390.017          42.587    38169747.841 7 153693760.739 7      1074.913          43.580  
C13  36650767.962 7 190850130.420 7     -1432.158          45.146    36650775.529 7 147577443.224 7     -1107.517          43.639  
C19  22808040.361 7 118767402.353 7      -930.383          47.579                                                                  
> 2020 11 19 06 01 41.0000000  0 17                     
G23  20286751.493 7 106607579.558 7      -431.366          47.981                                                                    20286751.391 8  83070832.646 8      -336.131          48.464  
G18  23093632.144 5 121357844.670 5     -3161.103          30.771                                                                    23093634.057 5  94564560.684 5     -2463.198          30.253  
G20  20049808.656 7 105362434.997 7      -876.225          46.942    20049807.479 7  82100582.377 7      -682.776          44.170                                                                  
G25  21598482.965 7 113500806.734 7      2237.593          44.737                                                                    21598488.849 7  88442187.582 7      1743.579          42.748  
G12  22108788.400 6 116182445.242 6       247.061          39.553                                                                    22108785.719 5  90531770.558 5       192.521          31.552  
G10  20792388.272 8 109264735.731 8      1729.801          50.344                                                                    20792389.086 7  85141355.606 7      1347.897          45.972  
R10  19392486.540 7 103372507.002 7      1590.638          45.132                                                                  
R09  20359193.254 7 108716570.940 7     -2353.826          47.398    20359193.792 7  84557334.573 7     -1830.752          44.819  
R07  20517609.541 7 109831938.439 7       974.273          47.623    20517609.388 7  85424859.826 7       757.768          44.691  
C01  37496797.603 7 195255643.999 7        -1.530          44.373    37496802.203 7 150984053.960 7        -1.236          44.324  
C08  37998712.972 5 197869227.209 5     -1740.980          35.891    37998713.105 5 153005071.846 5     -1345.897          35.693  
C03  36338935.387 7 189226353.329 7       -30.977          46.042    36338934.495 7 146321808.029 7       -24.125          45.213  
C04  38408536.148 7 200003317.352 7       -13.304          42.453    38408538.188 6 154655257.770 6       -10.044          39.829  
C22  22566839.901 6 117511469.865 6      1359.693          41.658                                                                  
C07  38169479.472 6 198758506.623 6      1390.310          41.917    38169480.822 7 153692685.545 7      1075.413          43.569  
C13  36651042.954 7 190851562.312 7     -1431.969          45.283    36651050.499 7 147578550.442 7     -1107.246          43.627  
C19  22808219.028 7 118768332.479 7      -930.243          47.421                                                                  
> 2020 11 19 06 01 42.0000000  0 16                     
G23  20286833.626 7 106608011.141 7      -432.132          47.999                                                                    20286833.515 8  83071168.945 8      -336.727          48.476  
G20  20049975.442 7 105363311.438 7      -877.183          47.003    20049974.288 7  82101265.316 7      -683.522          43.696                                                                  
G25  21598057.117 7 113498568.957 7      2237.389          44.904                                                                    21598063.014 7  88440443.861 7      1743.421          43.051  
G12  22108741.504 6 116182198.550 6       245.897          39.564                                                                    22108738.831 5  90531578.331 5       191.613          30.604  
G10  20792059.128 8 109263006.084 8      1729.298          50.404                                                                    20792059.947 7  85140007.828 7      1347.505          45.799  
R10  19392188.191 7 103370916.683 7      1589.654          45.149                                                                  
R09  20359634.128 7 108718925.133 7     -2354.798          47.530    20359634.676 7  84559165.613 7     -1831.508          44.948  
R07  20517427.568 7 109830964.267 7       973.781          47.571    20517427.380 7  85424102.139 7       757.386          44.687  
C01  37496797.900 7 195255645.507 7        -1.763          44.230    37496802.496 7 150984055.135 7        -1.498          44.195  
C08  37999047.319 6 197870968.297 6     -1741.292          36.039    37999047.480 5 153006418.179 5     -1346.222          35.717  
C03  36338941.335 7 189226384.310 7       -31.298          46.197    36338940.440 7 146321831.976 7       -24.143          45.551  
C04  38408538.645 7 200003330.383 7       -13.448          42.481    38408540.700 6 154655267.841 6       -10.292          40.026  
C22  22566578.794 6 117510110.150 6      1359.261          41.594                                                                  
C07  38169212.445 6 198757116.107 6      1390.564          41.970    38169213.799 7 153691610.332 7      1075.043          43.736  
C13  36651317.948 7 190852994.290 7     -1432.375          45.610    36651325.492 7 147579657.742 7     -1107.548          43.651  
C19  22808397.742 7 118769262.838 7      -930.754          47.623                                                                  
> 2020 11 19 06 01 43.0000000  0 16                     
G23  20286915.899 7 106608443.510 7      -432.330          47.962                                                                    20286915.787 8  83071505.856 8      -336.881          48.502  
G20  20050142.376 7 105364188.693 7      -877.309          47.013    20050141.252 7  82101948.885 7      -683.621          43.596                                                                  
G25  21597631.404 7 113496331.883 7      2237.072          44.805                                                                    21597637.287 7  88438700.686 7      1743.173          42.995  
G12  22108694.742 6 116181952.677 6       246.151          38.896                                                                    22108692.115 5  90531386.745 5       191.810          30.011  
G10  20791730.118 8 109261277.111 8      1729.089          50.340                                                                    20791730.933 7  85138660.577 7      1347.342          46.019  
R10  19391890.072 7 103369327.438 7      1589.155          45.121                                                                  
R09  20360075.175 7 108721280.262 7     -2354.983          47.356    20360075.746 7  84560997.379 7     -1831.653          44.923  
R07  20517245.682 7 109829990.550 7       973.904          47.448    20517245.460 7  85423344.802 7       757.481          44.782  
C01  37496798.250 7 195255647.260 7        -1.569          44.281    37496802.826 7 150984056.481 7        -1.187          44.306  
C08  37999381.738 5 197872709.713 5     -1740.780          35.248    37999381.962 5 153007764.771 5     -1346.199          35.284  
C03  36338947.330 7 189226415.530 7       -31.042          46.265    36338946.434 7 146321856.118 7       -23.983          45.418  
C04  38408541.195 7 200003343.654 7       -13.152          42.613    38408543.250 6 154655278.114 6       -10.044          39.964  
C22  22566317.741 6 117508750.816 6      1359.438          41.553                                                                  
C07  38168945.487 7 198755725.896 7      1390.591          42.199    38168946.827 7 153690535.332 7      1075.126          43.907  
C13  36651593.026 7 190854426.673 7     -1432.306          45.589    36651600.547 7 147580765.337 7     -1107.438          43.592  
C19  22808576.559 7 118770193.747 7      -930.807          47.718                                                                  
> 2020 11 19 06 01 44.0000000  0 16                     
G23  20286998.173 8 106608875.834 8      -432.401          48.055                                                                    20286998.068 8  83071842.731 8      -336.936          48.468  
G20  20050309.318 7 105365065.943 7      -877.416          47.058    20050308.214 7  82102632.452 7      -683.704          44.087                                                                  
G25  21597205.667 7 113494094.619 7      2236.959          44.704                                                                    21597211.548 7  88436957.366 7      1743.086          42.740  
G12  22108647.988 6 116181706.858 6       245.950          38.609                                                                    22108645.299 5  90531195.196 5       191.653          30.841  
G10  20791401.068 8 109259547.952 8      1729.067          50.413                                                                    20791401.873 7  85137313.179 7      1347.325          45.869  
R10  19391591.968 7 103367738.428 7      1588.812          45.326                                                                  
R09  20360516.231 7 108723635.440 7     -2355.352          47.289    20360516.815 7  84562829.185 7     -1831.940          45.082  
R07  20517063.732 7 109829016.422 7       974.137          47.511    20517063.461 7  85422587.148 7       757.662          44.875  
C01  37496798.480 7 195255648.397 7        -0.889          44.203    37496803.036 7 150984057.368 7        -0.806          44.255  
C08  37999716.031 5 197874450.622 5     -1740.553          35.698    37999716.334 5 153009110.975 5     -1346.250          35.180  
C03  36338953.204 7 189226446.131 7       -30.537          46.266    36338952.304 7 146321879.783 7       -23.706          45.386  
C04  38408543.618 7 200003356.314 7       -12.536          42.758    38408545.675 6 154655287.901 6        -9.790          39.447  
C22  22566056.624 6 117507391.063 6      1359.891          41.690                                                                  
C07  38168678.403 7 198754335.081 7      1390.982          42.102    38168679.730 7 153689459.860 7      1075.465          43.630  
C13  36651868.005 7 190855858.533 7     -1431.821          45.584    36651875.502 7 147581872.552 7     -1107.246          43.900  
C19  22808755.321 8 118771124.352 8      -930.647          48.005                                                                  
> 2020 11 19 06 01 45.0000000  0 16                     
G23  20287080.519 8 106609308.555 8      -432.749          48.141                                                                    20287080.415 8  83072179.912 8      -337.209          48.307  
G20  20050476.344 7 105365943.646 7      -877.805          46.964    20050475.259 7  82103316.371 7      -684.008          43.958                                                                  
G25  21596779.962 7 113491857.595 7      2237.068          45.271                                                                    21596785.844 7  88435214.229 7      1743.170          43.185  
G12  22108601.303 6 116181461.490 6       245.417          38.186                                                                    22108598.607 5  90531004.004 5       191.238          31.274  
G10  20791072.072 8 109257819.064 8      1728.753          50.334                                                                    20791072.863 7  85135965.991 7      1347.080          46.084  
R10  19391294.005 7 103366150.112 7      1588.165          45.298                                                                  
R09  20360957.382 7 108725991.148 7     -2355.836          47.169    20360957.992 7  84564661.401 7     -1832.317          44.941  
R07  20516881.763 7 109828042.325 7       974.041          47.296    20516881.474 7  85421829.514 7       757.587          44.919  
C01  37496798.669 7 195255649.390 7        -0.793          44.552    37496803.226 7 150984058.132 7        -0.542          44.262  
C08  38000050.334 5 197876191.436 5     -1740.920          34.701    38000050.675 5 153010457.090 5     -1346.094          34.331  
C03  36338959.059 7 189226476.577 7       -30.191          46.175    36338958.155 7 146321903.327 7       -23.390          45.376  
C04  38408546.027 7 200003368.841 7       -12.423          42.668    38408548.092 6 154655297.604 6        -9.803          39.211  
C22  22565795.515 6 117506031.325 6      1359.737          41.576                                                                  
C07  38168411.282 7 198752944.139 7      1390.987          42.285    38168412.616 7 153688384.303 7      1075.571          43.768  
C13  36652142.988 7 190857290.405 7     -1431.700          45.705    36652150.474 7 147582979.767 7     -1107.175          43.443  
C19  22808934.105 7 118772055.107 7      -930.689          47.979                                                                  
> 2020 11 19 06 01 46.0000000  0 16                     
G23  20287163.016 8 106609742.046 8      -434.004          48.036                                                                    20287162.896 8  83072517.694 8      -338.187          48.370  
G20  20050643.511 7 105366822.143 7      -878.907          47.055    20050642.466 7  82104000.911 7      -684.867          43.708                                                                  
G25  21596354.374 7 113489621.229 7      2236.001          45.143                                                                    21596360.264 7  88433471.605 7      1742.339          42.755  
G12  22108554.757 6 116181216.947 6       244.244          37.195                                                                    22108552.124 5  90530813.461 5       190.327          30.953  
G10  20790743.196 8 109256090.817 8      1727.826          50.392                                                                    20790743.993 7  85134619.305 7      1346.358          45.818  
R10  19390996.246 7 103364562.844 7      1586.570          45.411                                                                  
R09  20361398.711 7 108728347.785 7     -2357.148          47.049    20361399.339 7  84566494.343 7     -1833.337          45.035  
R07  20516699.883 7 109827068.685 7       973.281          47.285    20516699.569 7  85421072.239 7       756.996          44.893  
C01  37496798.910 7 195255650.597 7        -1.551          43.987    37496803.458 7 150984059.068 7        -1.139          44.177  
C08  38000384.693 5 197877932.534 5     -1741.298          35.615    38000385.055 5 153011803.370 5     -1346.590          35.089  
C03  36338964.954 7 189226507.249 7       -30.995          46.440    36338964.045 7 146321927.038 7       -23.959          45.441  
C04  38408548.467 7 200003381.550 7       -12.912          42.927    38408550.530 6 154655307.428 6       -10.083          39.683  
C22  22565534.477 6 117504671.985 6      1359.053          41.820                                                                  
C07  38168144.214 7 198751553.425 7      1390.456          42.267    38168145.543 7 153687308.905 7      1075.187          43.544  
C13  36652418.036 7 190858722.627 7     -1432.526          45.885    36652425.518 7 147584087.248 7     -1107.680          43.646  
C19  22809112.986 8 118772986.378 8      -931.731          48.266                                                                  
> 2020 11 19 06 01 47.0000000  0 16                     
G23  20287245.667 8 106610176.344 8      -434.754          48.059                                                                    20287245.550 8  83072856.107 8      -338.771          48.301  
G20  20050810.846 7 105367701.506 7      -879.736          47.097    20050809.833 7  82104686.126 7      -685.512          44.295                                                                  
G25  21595928.919 7 113487385.514 7      2235.412          45.431                                                                    21595934.805 7  88431729.491 7      1741.880          42.805  
G12  22108508.353 6 116180973.294 6       242.641          36.839                                                                    22108505.786 4  90530623.616 4       189.078          29.609  
G10  20790414.449 8 109254363.252 8      1727.167          50.373                                                                    20790415.239 7  85133273.154 7      1345.845          45.871  
R10  19390698.706 7 103362976.671 7      1585.535          45.342                                                                  
R09  20361840.203 7 108730705.348 7     -2358.097          47.015    20361840.857 7  84568328.004 7     -1834.075          44.996  
R07  20516518.095 7 109826095.559 7       972.869          47.264    20516517.761 7  85420315.363 7       756.676          44.771  
C01  37496799.184 7 195255652.056 7        -1.821          44.334    37496803.737 7 150984060.193 7        -1.250          44.247  
C08  38000719.096 5 197879673.971 5     -1741.993          35.384    38000719.530 5 153013149.968 5     -1346.793          34.631  
C03  36338970.890 7 189226538.137 7       -30.919          46.539    36338969.977 7 146321950.939 7       -24.055          45.482  
C04  38408550.956 7 200003394.514 7       -13.065          42.844    38408553.030 6 154655317.452 6       -10.228          39.663  
C22  22565273.524 6 117503313.049 6      1359.011          41.770                                                                  
C07  38167877.201 7 198750162.981 7      1390.256          42.237    38167878.536 7 153686233.735 7      1075.033          43.678  
C13  36652693.157 7 190860155.213 7     -1432.688          45.857    36652700.637 7 147585195.027 7     -1107.965          43.791  
C19  22809291.980 8 118773918.200 8      -932.163          48.161                                                                  
